LakeID,LakeName,latitude,longitude
1,Caspian Sea,41.72860000000,50.73520000000
8,Great Bear,66.00270000000,-120.93100000000
10,Great Slave,61.29450000000,-115.48200000000
11,Winnipeg,52.51110000000,-97.79020000000
2,Superior,47.60050000000,-86.31900000000
5,Michigan-Huron,43.24290000000,-87.23190000000
12,Erie,42.14760000000,-81.24810000000
15,Ladoga,60.83970000000,31.46870000000
16,Balkhash,46.54340000000,74.86070000000
82,Large Aral Sea,44.93730000000,59.78540000000
14,Kara-Bogaz-Gol,41.33280000000,53.64470000000
106,Chad,13.04190000000,14.05460000000
700,Selawik,66.49510000000,-160.72900000000
33,Netilling,66.49570000000,-70.49490000000
181,Takiyuak,66.16240000000,-113.19400000000
277,Contwoyto,65.79530000000,-111.12800000000
61,Amadjuak,64.90710000000,-71.21310000000
176,Aberdeen,64.49080000000,-98.87460000000
115,Baker,64.15480000000,-95.24820000000
49,Dubawnt,63.11640000000,-101.40400000000
112,Martre,63.31520000000,-117.94500000000
128,Yathkyed,62.67670000000,-97.86630000000
93,Nueltin,59.99950000000,-99.21940000000
127,Kasba,60.30750000000,-102.19500000000
72,Iliamna,59.55650000000,-155.06700000000
87,Wollaston,58.23730000000,-103.28600000000
21,Athabasca,59.18670000000,-109.90100000000
143,Claire,58.58700000000,-112.08200000000
152,Becharof,57.91840000000,-156.39500000000
151,Cree,57.35720000000,-106.64800000000
138,La Ronge,54.99810000000,-105.07800000000
159,Lesser Slave,55.45110000000,-115.11100000000
173,Gods,54.68550000000,-94.22790000000
303,Moose,53.93960000000,-100.10800000000
30,Winnipegosis,52.77490000000,-100.73700000000
34,Manitoba,50.48790000000,-98.35360000000
91,Mistassini,51.20650000000,-73.12810000000
56,Woods,49.08920000000,-94.96370000000
155,Champlain,44.76820000000,-73.18060000000
71,Great Salt,41.19120000000,-112.53500000000
182,Chapala,20.23730000000,-103.01100000000
168,Managua,12.38050000000,-86.35510000000
19,Nicaragua,11.51340000000,-85.35640000000
35,Taymyr,74.53450000000,101.95000000000
9900036,Inari,68.75660000000,27.84440000000
137,Vygozero,63.57510000000,34.77780000000
216,Iso-Kallan,62.36800000000,28.04010000000
154,Paijanne,61.73440000000,25.59720000000
147,Beloye,60.17990000000,37.63450000000
203,Malaren,59.28460000000,17.56890000000
54,Peipsi,58.54290000000,27.54660000000
103,Vattern,58.33240000000,14.53870000000
148,Chany,54.82450000000,77.05620000000
66,Khovsgol,51.08090000000,100.47700000000
141,Tengiz,50.39100000000,68.87580000000
52,Uvs,50.31540000000,92.74960000000
95,Hulun,48.94570000000,117.39800000000
129,Khyargas,49.19710000000,93.30270000000
194,Khar Us,48.02780000000,92.23530000000
62,Alakol,45.99890000000,81.74480000000
13827,Syvash,45.74920000000,34.90540000000
37,Khanka,44.99280000000,132.39600000000
23,Issyk Kul,42.44100000000,77.26620000000
47,Sarygamysh,41.96980000000,57.23630000000
139,Sevan,40.35650000000,45.32870000000
229,Tuz,38.73030000000,33.41720000000
50,Van,38.64360000000,42.95320000000
188,Urmia,37.66510000000,45.45310000000
38,Qinghai,36.85590000000,99.90230000000
80,Siling,31.78740000000,88.98550000000
83,Tai,31.20060000000,120.19200000000
94,Nam,30.71260000000,90.64640000000
1837,Goud-e-Zareh,29.82250000000,62.22670000000
98,Poyang,29.11130000000,116.27600000000
76,Tonle Sap,12.90950000000,104.04900000000
60,Tana,12.03720000000,37.15300000000
163,Abaya,6.10002000000,37.71440000000
22,Turkana,3.09218000000,36.26790000000
24,Albert,1.72456000000,30.94360000000
160,Toba,2.43431000000,98.99480000000
75,Kyoga,1.43526000000,32.62400000000
9910439,,77.07610000000,-20.64420000000
492,,72.76930000000,-94.82820000000
1303,Crooked,72.56090000000,-98.35380000000
602,Zeta,70.94220000000,-106.54800000000
833,Angajurjualuk,71.14110000000,-78.96470000000
1401,Quartz,70.95830000000,-80.54390000000
1245,Tahiryuak,70.96120000000,-112.16100000000
1200,Namaycush,70.76770000000,-108.26200000000
1561,Nina Bang,70.84960000000,-79.49780000000
457,Erichsen,70.66150000000,-80.51100000000
218,Teshekpuk,70.59320000000,-153.58500000000
567,,70.36570000000,-73.12950000000
561,,70.54360000000,-73.63530000000
1048,Neergaure,70.21760000000,-79.92600000000
1605,,70.26110000000,-106.37400000000
625,Washburn,70.06990000000,-107.44600000000
1091,Tahoe,70.00200000000,-108.42400000000
1045,Quunnguq,69.88590000000,-112.69200000000
1426,Jayko,69.81180000000,-103.19700000000
1424,,69.66590000000,-109.11600000000
1109,,69.74200000000,-104.52700000000
1504,Jekyll,69.70600000000,-93.65740000000
712,Surrey,69.62620000000,-107.18800000000
321,Labaz,69.42110000000,-105.26600000000
1300,,69.57970000000,-75.41810000000
1150,Pangnikto,69.54090000000,-92.83020000000
477,Netsilik,69.27990000000,-93.08930000000
6380,,69.31260000000,-108.60500000000
210,Eskimo Southern,68.69480000000,-132.96300000000
1445,,69.22520000000,-105.66900000000
5644,,69.05220000000,-110.62500000000
11896,Lady Melville,69.17810000000,-92.36310000000
389,Hall,68.65210000000,-82.30650000000
411,Bluenose,68.46120000000,-119.71500000000
611,Sitidgi,68.53790000000,-132.71400000000
1154,,68.26560000000,-116.69900000000
1468,,67.69040000000,-131.79100000000
1442,,67.52090000000,-127.14800000000
988,Horton,67.48180000000,-122.44700000000
538,Maunoir,67.47500000000,-124.92900000000
1593,,67.22950000000,-113.23600000000
951,MacNaughton,67.30990000000,-98.49000000000
475,Aubry,67.39790000000,-126.44200000000
407,Colville,67.16110000000,-125.98200000000
386,,66.92910000000,-96.12930000000
400,Bois,66.82410000000,-125.21200000000
596,Belot,66.89290000000,-126.29300000000
1262,,66.76420000000,-112.97700000000
1193,Curtis,66.78940000000,-89.01400000000
1822,,66.47520000000,-100.85000000000
1201,,66.44010000000,-103.38000000000
1093,,66.31450000000,-97.69710000000
792,Rockinghorse,65.81360000000,-112.31800000000
1151,,65.90820000000,-91.21090000000
9910440,,65.98250000000,-98.63070000000
9910202,Garry( Upper),65.80020000000,-100.50900000000
9910092,Pelly,65.90150000000,-101.32800000000
1260,Deep Rose,65.69700000000,-98.68830000000
1403,,65.60950000000,-97.77680000000
9334,,65.53910000000,-99.29420000000
1295,Hansine,65.61800000000,-85.65510000000
1552,,65.52390000000,-71.94620000000
1701,,65.49450000000,-100.10200000000
863,Itchen,65.49660000000,-112.90700000000
942,Mahony,65.51290000000,-125.35900000000
1116,Nose,65.36880000000,-109.03200000000
1930,,64.99390000000,-96.46990000000
1356,,65.38560000000,-126.13300000000
9910001,Hottah,65.04350000000,-118.44100000000
1370,,65.22060000000,-99.68210000000
747,Imuruk Basin,65.12890000000,-165.67600000000
1347,,65.10430000000,-102.31300000000
9910058,,65.14600000000,-95.32990000000
263,Tehek,64.93290000000,-95.61490000000
1924,,65.01730000000,-103.01300000000
1064,,64.78710000000,-75.47830000000
14283,,64.76850000000,-110.78500000000
5665,Yamba,64.94110000000,-111.26200000000
487,Hardish,64.52870000000,-117.87600000000
1334,Luran,64.85340000000,-93.05010000000
4878,Schultz,64.75170000000,-97.42120000000
778,Mingo,64.52860000000,-72.25400000000
1473,Birch,64.62710000000,-121.60300000000
11254,,64.79700000000,-113.38200000000
9910442,Beverly,64.57080000000,-100.50500000000
323,Point,64.78770000000,-112.10200000000
272,Gras,64.53240000000,-109.97700000000
1157,Whitehills,64.57990000000,-96.03640000000
2841,,64.16400000000,-117.51200000000
10716,,64.18180000000,-114.02700000000
808,Blackwater,63.86000000000,-123.00500000000
73,Mackay,63.85250000000,-110.89100000000
1216,Ingray,64.14880000000,-116.20200000000
9910003,Aylmer,64.12650000000,-108.51600000000
459,Keller,63.92890000000,-121.57100000000
273,Wharton,64.01300000000,-99.78020000000
2138,,64.08900000000,-91.67130000000
672,Pitz,63.86820000000,-96.59470000000
1294,,64.21830000000,-115.02000000000
408,Mallery,63.97880000000,-98.38750000000
690,Grandin,63.97750000000,-119.04300000000
1136,,63.73280000000,-109.70100000000
1688,,63.89610000000,-113.80600000000
451,Faber,63.93160000000,-117.28000000000
379,Princess Mary,63.96120000000,-97.42470000000
363,Tebesjuak,63.70410000000,-98.78420000000
1340,,63.53690000000,-111.30500000000
9910080,,63.59160000000,-96.45810000000
9910004,Clinton Colden,63.95160000000,-107.46700000000
1371,,63.49030000000,-106.82200000000
771,Ford,63.34100000000,-97.29410000000
452,Fletcher,63.57580000000,-108.71800000000
1721,,63.31890000000,-100.05000000000
10795,,63.40090000000,-94.71270000000
1475,Campbell,63.26590000000,-106.77400000000
3098,,63.33660000000,-112.30000000000
1052,,63.29630000000,-106.35600000000
268,Tulemalu,62.93360000000,-99.44020000000
967,,63.02400000000,-118.32900000000
1435,Fish,63.20000000000,-122.43400000000
1563,,63.07470000000,-92.35340000000
11579,Tyrrell,63.12110000000,-105.48900000000
1040,Gordon,63.06560000000,-113.20200000000
633,,63.10370000000,-92.80470000000
803,Nutarawit,63.02310000000,-98.17770000000
338,Artillery,63.19020000000,-107.80700000000
1387,,62.80280000000,-104.37300000000
1067,,62.93670000000,-96.95110000000
1486,Bulmer,62.79790000000,-120.77100000000
318,Kaminuriak,62.82810000000,-95.78880000000
9910072,,62.44300000000,-102.64600000000
539,White Fish,62.69520000000,-106.78900000000
280,Kamilukuak,62.27210000000,-101.72000000000
587,Mosquito,62.57510000000,-103.33100000000
1070,Mary,62.37950000000,-103.48100000000
570,,62.35100000000,-106.37800000000
350,Kaminak,62.09900000000,-95.09730000000
9910089,Nowleye,62.36000000000,-101.21600000000
674,Aggikani,62.39940000000,-100.26100000000
1242,,62.24260000000,-107.63800000000
1575,Sid,62.26220000000,-104.11600000000
425,Carey,62.14750000000,-103.13400000000
179,Angikuni,62.25060000000,-99.95780000000
1313,,62.27250000000,-102.24600000000
1119,Willow,62.17730000000,-119.15000000000
1513,,62.14160000000,-97.52510000000
1410,Barlow,62.00620000000,-102.96800000000
3373,,61.97820000000,-102.34500000000
1055,Tazlina Lake,61.84720000000,-146.47800000000
1658,,61.95080000000,-110.35100000000
846,,61.74360000000,-102.27200000000
1320,Boyd,61.55940000000,-103.24700000000
9910050,North Henik,61.71660000000,-97.71770000000
235,Nonacho,61.54320000000,-109.33200000000
856,,61.39980000000,-102.60400000000
326,Maguse,61.48260000000,-95.03380000000
462,Kluane,61.24470000000,-138.70400000000
1323,,61.60550000000,-110.78200000000
866,Laberge,61.15810000000,-135.17500000000
2573,,61.28420000000,-102.32900000000
601,Hicks,61.38290000000,-99.91700000000
1145,Aishihik,61.42990000000,-137.11700000000
247,Ennadai,60.77320000000,-101.57000000000
12365,Watterson,61.18540000000,-99.42490000000
223,South Henik,61.24340000000,-97.28150000000
1845,Kayigyalik Lake,60.96120000000,-162.51800000000
1015,Aropuk Lake,61.17520000000,-163.72100000000
717,Nantais,60.97810000000,-73.95850000000
532,,60.93010000000,-117.68800000000
979,,61.07370000000,-110.09800000000
1570,,60.83930000000,-97.99650000000
9900025,Kagalurpak Lake,60.92590000000,-163.99300000000
9270,,60.91340000000,-163.74700000000
1246,Nunavakpak Lake,60.80310000000,-162.62600000000
225,Wholdaia,60.58160000000,-104.15500000000
9910051,,60.93760000000,-104.41700000000
917,Tatinnai,60.92130000000,-97.68560000000
362,Trout,60.49440000000,-121.31400000000
316,Tathlina,60.53600000000,-117.53900000000
1706,,60.60570000000,-74.88680000000
1705,,61.50790000000,-110.13700000000
1280,,60.24190000000,-99.99270000000
9910052,,60.35170000000,-104.10300000000
748,,60.51850000000,-73.73370000000
488,Teslin,59.92920000000,-132.37200000000
357,Snowbird,60.66550000000,-102.93700000000
889,,60.30340000000,-97.15140000000
296,Buffalo,60.20090000000,-115.49100000000
1535,,60.36360000000,-74.13800000000
376,Dall Lake,60.24910000000,-163.55500000000
7288,,60.18460000000,-104.91600000000
509,,60.13270000000,-134.49000000000
598,Tustumena Lake,60.21260000000,-150.89200000000
1618,,60.23910000000,-98.96310000000
1137,,60.05080000000,-73.70880000000
687,,60.09690000000,-75.33270000000
10320,Lake Clark,60.21740000000,-154.34700000000
1217,Baralzon,59.97140000000,-98.03440000000
322,Selwyn,60.03200000000,-104.49100000000
483,Scott,60.02290000000,-106.10400000000
1095,,59.62640000000,-71.88910000000
470,Tazin,59.74000000000,-109.04000000000
1798,,59.74160000000,-74.98230000000
437,Bistcho,59.74430000000,-118.79300000000
2685,,59.66890000000,-98.79370000000
1227,,59.79440000000,-73.62120000000
1061,,59.52940000000,-99.99380000000
302,Atlin,59.25140000000,-133.87200000000
862,Lake Nerka,59.51580000000,-158.98300000000
1936,,59.09630000000,-103.67900000000
359,Payne,59.45670000000,-73.94510000000
340,Black,59.17990000000,-105.31200000000
978,Kukaklek Lake,59.17030000000,-155.34100000000
834,,59.04340000000,-73.94490000000
957,Riou,59.08870000000,-106.52400000000
1415,,59.09270000000,-103.47500000000
1266,Nonvianuk Lake,58.99770000000,-155.35400000000
781,Faribault,58.92110000000,-71.81500000000
1546,Davy,58.86520000000,-108.28900000000
571,,58.76950000000,-98.62170000000
417,,58.80350000000,-97.84950000000
10182,,58.76430000000,-72.42900000000
1263,Hatchett,58.63970000000,-103.69900000000
315,Naknek,58.51290000000,-155.57100000000
3152,,58.57610000000,-75.34090000000
2067,,58.60960000000,-111.46800000000
2149,Lake Grosvenor,58.68500000000,-155.20300000000
1128,,58.65420000000,-75.80140000000
541,Brochet,58.62250000000,-101.65300000000
733,Pasfield,58.37330000000,-105.32300000000
1629,,58.31000000000,-101.90500000000
784,,58.10860000000,-75.25160000000
1038,,58.15720000000,-104.38500000000
9061,,58.10850000000,-73.87900000000
641,Big Sand,57.71950000000,-99.73910000000
238,Minto,57.17440000000,-75.09380000000
821,Upper Ugashik Lake,57.63190000000,-156.76500000000
927,Lower Ugashik Lake,57.50890000000,-156.88200000000
793,,57.28690000000,-97.31310000000
662,Gauer,56.90530000000,-97.82510000000
1314,,56.82940000000,-107.67100000000
1180,Barrington,56.89450000000,-100.24700000000
864,Lwe Moyne,56.98390000000,-68.30270000000
1621,,56.78260000000,-105.21000000000
605,Notigi Reservoir,56.11600000000,-99.52010000000
1223,Baldock,56.49050000000,-97.91800000000
1229,,56.64900000000,-68.12640000000
8441,,56.45350000000,-104.22200000000
499,Wasekamio and Turnor,56.45260000000,-108.66800000000
824,Waskaiowaka,56.51580000000,-96.34600000000
1165,,56.24150000000,-69.03820000000
1993,,56.55660000000,-114.54800000000
1446,,56.48240000000,-110.38900000000
369,,56.45670000000,-73.71610000000
1011,Castignon,56.30200000000,-68.63250000000
852,Loche,56.42530000000,-109.49300000000
1020,,56.24480000000,-101.99900000000
1338,,56.33290000000,-101.39400000000
9910444,Split,56.17210000000,-96.18070000000
258,Guillaume-Delisle,56.19310000000,-76.45420000000
1862,,56.14950000000,-64.22910000000
1650,North Wabasca,56.05280000000,-113.91800000000
1306,Otelnuc,56.11160000000,-68.24860000000
1130,,55.85430000000,-73.23850000000
1133,,55.85410000000,-64.05310000000
1848,,56.03930000000,-72.05250000000
646,,56.08410000000,-79.30310000000
1143,,55.89060000000,-63.26930000000
380,Ile-a-la-Crosse,55.55030000000,-108.07700000000
617,Utikuma,55.86950000000,-115.40200000000
2826,,55.88270000000,-72.58250000000
716,,55.88630000000,-65.70190000000
1368,,55.82560000000,-107.02500000000
231,Peter Pond,56.02310000000,-109.00400000000
192,Churchill,56.00360000000,-108.31600000000
415,Pinehouse,55.53360000000,-106.53900000000
1409,,55.57940000000,-67.57230000000
1357,,55.42250000000,-97.98240000000
1330,Winefred,55.49250000000,-110.53700000000
1273,Besnard,55.42540000000,-105.95500000000
1851,,55.41580000000,-73.94230000000
1465,,55.33190000000,-97.75430000000
1104,,55.54810000000,-96.32300000000
943,,55.72910000000,-73.13110000000
628,,55.42330000000,-64.21480000000
1212,,55.35950000000,-100.24100000000
954,Utik,55.20780000000,-96.12080000000
384,Babine,54.98720000000,-126.27600000000
606,,55.15030000000,-101.23100000000
1074,,55.25770000000,-105.49700000000
9910007,Sipiwesk,54.95670000000,-98.10340000000
895,Canoe,55.18090000000,-108.26800000000
616,Knee,54.91050000000,-94.70150000000
1206,Calling,55.24230000000,-113.30800000000
731,Plonge,55.11740000000,-107.32300000000
1060,Bear,55.11850000000,-96.04770000000
1333,,54.96830000000,-98.65400000000
1207,Egg,55.08060000000,-105.51300000000
683,Takla,55.54150000000,-126.06600000000
197,Bienville,55.09880000000,-72.77640000000
749,Biche,54.88660000000,-112.18300000000
526,Oxford,54.85600000000,-95.46460000000
1497,,54.88260000000,-102.98100000000
714,Wapawekka,54.92500000000,-104.61600000000
983,Wekusko,54.77070000000,-99.84250000000
424,Primrose,54.91150000000,-109.75600000000
347,Deschambault,54.66920000000,-103.44900000000
763,Burton,54.76350000000,-78.31580000000
1449,,54.85390000000,-125.06100000000
9910445,,54.76220000000,-97.18570000000
1268,Edmund,54.73180000000,-93.26260000000
9910446,Walker,54.65800000000,-97.01190000000
631,Smoothstone,54.64100000000,-106.82500000000
9910447,,54.81250000000,-66.44630000000
282,Dore,54.76750000000,-107.30800000000
9910448,,54.69340000000,-97.72300000000
1292,,54.53560000000,-101.16700000000
924,Reed,54.62050000000,-100.45600000000
496,Cold,54.55110000000,-110.06100000000
4153,Athapapuskow,54.49150000000,-101.74200000000
398,Montreal,54.37820000000,-105.61700000000
1152,,54.40190000000,-92.55540000000
494,Stuart,54.51200000000,-124.50500000000
531,Amisk,54.51730000000,-102.24900000000
1239,Goose,54.44140000000,-101.53500000000
1678,Julian,54.43460000000,-77.92210000000
1381,,54.36230000000,-102.78500000000
935,Beaver Hill,54.24560000000,-94.94710000000
9910451,Kiskitto,54.25750000000,-98.63240000000
454,Molson,54.21600000000,-96.80550000000
1530,,54.15660000000,-92.97170000000
823,Red Sucker,54.13710000000,-93.68960000000
513,Cormorant,54.26430000000,-100.92500000000
934,Talbot,54.02770000000,-99.89400000000
618,Clearwater,54.05790000000,-101.05400000000
1620,Little Sachigo,54.15230000000,-92.19970000000
9910452,,54.07590000000,-59.10500000000
1643,Nipishich,54.20600000000,-60.76540000000
1402,Crean,54.08090000000,-106.17500000000
1248,Delarondo,54.04060000000,-107.04300000000
191,Island,53.71400000000,-94.75750000000
1487,Rocky,54.15260000000,-101.52200000000
9910009,Playgreen,53.89690000000,-98.17230000000
694,,54.03560000000,-125.74200000000
822,Cumberland,54.12740000000,-101.94300000000
6437,Stevenson,53.86930000000,-96.04980000000
1453,William,53.80640000000,-99.42730000000
779,Sachigo,53.80110000000,-92.10390000000
1265,Candle,53.82790000000,-105.30600000000
262,Big Trout,53.73140000000,-90.01400000000
1672,Big Stone,53.65710000000,-95.54340000000
410,,53.43830000000,-69.01820000000
903,Grand,53.69850000000,-60.57230000000
9910454,Beaverhill,53.44540000000,-112.53900000000
9910455,,53.57460000000,-88.21140000000
269,Sakami,52.96670000000,-76.73480000000
707,Eutsuk,53.26840000000,-126.61700000000
653,Nichicun,53.08610000000,-70.98100000000
9900074,Wabush,53.11090000000,-66.61580000000
193,,52.85940000000,-87.30890000000
5069,,53.12700000000,-93.56360000000
271,Sandy,52.95480000000,-93.09630000000
1528,,52.94350000000,-92.02160000000
360,Ashuanipi,52.53240000000,-66.27270000000
9900071,Atikonak,52.65570000000,-64.54150000000
9910456,,52.94180000000,-88.01710000000
9910457,,52.84780000000,-87.81390000000
627,Naococane,52.87710000000,-70.65340000000
1009,Weagamow,52.88280000000,-91.37810000000
9910458,,52.89450000000,-89.18120000000
688,Red Deer,52.94790000000,-101.35900000000
553,North Caribou,52.71380000000,-90.89100000000
1253,,52.59640000000,-93.99340000000
521,Swan,52.50540000000,-100.80300000000
657,Quesnel,52.50940000000,-120.94800000000
1080,Pelican,52.46950000000,-100.33300000000
1211,MacDowell,52.24250000000,-92.68430000000
941,,52.31200000000,-85.19810000000
4835,,52.23060000000,-87.87120000000
1259,,52.12230000000,-94.56600000000
1289,,52.09760000000,-63.82250000000
252,Quill Lakes,51.91040000000,-104.05500000000
2207,Fleur de May,51.85500000000,-65.03470000000
836,Waterhen,52.08630000000,-99.56100000000
511,St. Martin,51.66270000000,-98.44500000000
932,Chilko,51.27510000000,-124.05500000000
1392,,51.72120000000,-91.70550000000
566,Pletipi,51.69820000000,-70.11010000000
8389,,51.36140000000,-75.14710000000
1252,,51.43590000000,-76.74850000000
349,Dauphin,51.25810000000,-99.77240000000
1493,,51.39550000000,-92.37160000000
300,St. Joseph,51.04630000000,-90.82720000000
460,Albaniel,50.87860000000,-73.32230000000
527,Trout,51.20680000000,-93.29160000000
287,Evans,50.84960000000,-76.87110000000
693,Red,51.03210000000,-93.97610000000
1284,Adams,51.15500000000,-119.60500000000
9910459,,50.76680000000,-77.30570000000
580,Shuswap,50.76640000000,-119.22500000000
815,Last Mountain,50.86420000000,-105.09500000000
1505,,51.15840000000,-64.74460000000
1360,Savant,50.51160000000,-90.32690000000
1583,,50.53620000000,-89.38460000000
1036,,50.48110000000,-75.26710000000
853,,50.50430000000,-61.08500000000
2672,Assinica,50.26660000000,-75.19790000000
991,Kesagami,50.31060000000,-80.31010000000
1059,Poncheville,50.13030000000,-76.85820000000
1404,,50.28640000000,-77.59810000000
1597,,50.03940000000,-90.27650000000
548,,50.09650000000,-105.96900000000
744,Sturgeon,49.92130000000,-90.87440000000
1499,,49.98130000000,-87.44850000000
757,Matagami,49.83480000000,-77.72710000000
9910028,Minnitaki,49.97390000000,-91.95240000000
2179,,49.91440000000,-74.87490000000
850,Chibougamau,49.81090000000,-74.22910000000
1534,,49.71910000000,-77.30580000000
558,Goeland,49.94800000000,-76.65000000000
1219,,49.53090000000,-86.81990000000
1034,Wabigoon,49.65580000000,-92.68990000000
593,Eagle,49.70370000000,-93.23530000000
2396,,49.55260000000,-74.54890000000
854,Waswanipi,49.54690000000,-76.40290000000
1569,,49.53940000000,-75.64060000000
9910460,,49.55610000000,-93.82690000000
1160,,49.35940000000,-75.42560000000
508,Okanagan,49.82670000000,-119.53600000000
804,Harrison,49.63700000000,-121.94800000000
1533,,49.22260000000,-93.85750000000
1431,,48.92100000000,-84.33940000000
1407,,48.93630000000,-54.70900000000
718,Mille Lacs,48.78280000000,-90.51290000000
202,Abitibi,48.60830000000,-79.57910000000
1471,Parent,48.73340000000,-76.95710000000
1168,Dog,48.77880000000,-89.51270000000
4073,,48.47600000000,-75.68520000000
1519,Nighthawk,48.46470000000,-80.97040000000
1548,Malartic,48.24280000000,-78.15740000000
1582,Preissac,48.29130000000,-78.38760000000
1349,Lac La Croix,48.35440000000,-92.13700000000
1103,Vermilion Lake,47.86400000000,-92.41950000000
1290,Lake Chelan,48.03150000000,-120.34900000000
13763,,47.50510000000,-77.50340000000
1004,Kempt,47.40060000000,-74.42540000000
10006,Temagam,47.02410000000,-79.90320000000
1230,Wanapitei,46.73580000000,-80.73410000000
9910461,St. Peter,46.20190000000,-72.81590000000
224,Nipissing,46.26520000000,-79.64890000000
352,Mille Lacs,46.24250000000,-93.64590000000
695,Grand,45.95640000000,-66.03480000000
1281,,45.90220000000,-77.21910000000
873,,45.35050000000,-66.04550000000
2528,Joseph,45.13840000000,-79.58940000000
1443,Muskoka,45.06290000000,-79.49790000000
237,Simcoe,44.43720000000,-79.36950000000
669,Yellowstone Lake,44.41000000000,-110.29600000000
1478,,44.42370000000,-78.37110000000
971,Lake Winnipesaukee,43.60130000000,-71.34090000000
1992,Malheur Lake,43.32620000000,-118.81100000000
968,Seneca Lake,42.77900000000,-76.94980000000
9910291,Summer Lake,42.81840000000,-120.74600000000
1125,Lake Abert,42.65200000000,-120.22000000000
658,Bear Lake,41.99480000000,-111.33000000000
9900049,Goose Lake,41.93330000000,-120.42200000000
1997,Eagle Lake,40.64290000000,-120.73900000000
9900075,Honey Lake,40.27750000000,-120.23800000000
393,Pyramid Lake,40.04780000000,-119.56600000000
365,Tahoe,39.09590000000,-120.03400000000
1452,Walker Lake,38.69520000000,-118.71400000000
958,Mono Lake,38.01440000000,-118.96800000000
1050,Lake Mattamuskeet,35.50560000000,-76.18700000000
209,Salton,33.31440000000,-115.81700000000
344,Lake George,29.29420000000,-81.60130000000
1254,,29.34540000000,-107.83700000000
1332,Lake Apopka,28.62400000000,-81.62600000000
1474,,28.54120000000,-106.73500000000
1204,Saumatre,18.56860000000,-71.99080000000
519,Enriquillo,18.45610000000,-71.58280000000
1565,Peten Itza,16.99640000000,-89.84190000000
244,Izabal,15.49380000000,-89.17250000000
9910462,,15.27350000000,-83.93050000000
1329,Atitla,14.70310000000,-91.20130000000
1385,Guajaro,10.53960000000,-75.03410000000
622,Zapatosa,9.09330000000,-73.82330000000
4508,,8.90869000000,-74.84420000000
1581,,8.35922000000,-75.08620000000
10387,Novo,1.48336000000,-50.66820000000
474,Portnyagino,74.15390000000,107.07200000000
1076,Kokora,72.99680000000,101.08400000000
1222,Nadudoturku,72.83130000000,84.10920000000
656,Bustakh,72.52830000000,141.94000000000
328,Ferguson,72.29140000000,99.58280000000
545,Mogotoyeyo,72.03490000000,149.13800000000
1255,Soluntakh,71.72720000000,143.23600000000
1559,Periptaveto,71.35610000000,78.98130000000
974,Yambuto,71.20820000000,79.39600000000
9900066,,71.01350000000,147.19900000000
1073,Ilergytgyn,70.50620000000,158.94800000000
1001,Mayato and Neyto,70.15500000000,70.53630000000
914,Neyato,70.06310000000,70.35700000000
831,Bol'shoye Morskoye,70.05260000000,158.75200000000
9910463,,70.03050000000,146.74700000000
1448,Yambuto,69.51410000000,69.01870000000
275,Lama,69.56260000000,90.21770000000
786,Nerpich'ye,69.27420000000,160.18000000000
1176,Glubokoye,69.28950000000,90.03770000000
1057,Ozhogino,69.25330000000,146.66700000000
10153,,68.85270000000,154.24100000000
1553,Sobach'ye,69.04000000000,91.40230000000
420,Keta,68.72620000000,90.05350000000
1395,Peschanoye,68.65710000000,53.04080000000
9910464,,68.41790000000,153.96100000000
9910465,,68.36360000000,153.01100000000
1396,Pavylon,68.43720000000,151.83800000000
195,Khantayskoye,68.28600000000,89.99830000000
737,Yessey,68.43900000000,102.40700000000
1673,,68.15110000000,154.84100000000
1089,Vtoroye,68.01940000000,71.15060000000
886,Lovozero,67.88430000000,35.21480000000
9910466,Golodnaya Guba,67.90220000000,52.85230000000
724,Pervoye,67.93480000000,71.59060000000
704,,67.99030000000,92.30290000000
564,Umbozero,67.68040000000,34.39250000000
1429,Eloygytgyn,67.48900000000,172.08700000000
1490,Virihaure,67.38060000000,16.54430000000
1362,Kovitskoye,67.08210000000,33.40300000000
1016,,66.83200000000,85.19050000000
720,Vivi,66.67030000000,93.98330000000
840,Tikshe,66.25910000000,31.86890000000
2970,,66.11800000000,27.05700000000
9910468,Shuryshkarskiy,65.98060000000,65.14280000000
220,Pya,66.07940000000,31.00640000000
2467,,65.92440000000,29.56440000000
899,Rossvatnet,65.77420000000,14.07110000000
736,Keret,65.84140000000,32.91330000000
1467,,65.75130000000,33.55010000000
9910469,,65.75840000000,66.23410000000
9910470,,65.68900000000,64.39040000000
189,Topozero,65.55940000000,32.08960000000
283,,64.94920000000,30.71170000000
9910471,,65.01580000000,65.88240000000
1033,Kianta,65.04740000000,29.12800000000
9910062,Sredneye Kuyto,65.12820000000,31.41670000000
1630,,64.75670000000,16.20660000000
9910472,,64.71250000000,65.94510000000
401,,64.46710000000,174.42900000000
809,,64.46350000000,31.89250000000
5109,,64.44080000000,66.24840000000
1633,Ontojarvi,64.12480000000,29.17760000000
1386,Snasvatnet,64.18600000000,12.00990000000
9910473,,63.80110000000,66.07500000000
1355,Pyhajarvi,63.53990000000,25.99110000000
6888,Leksozero,63.76870000000,30.97990000000
1419,Nedzheli,63.59970000000,125.20400000000
228,Seg,63.27080000000,33.74500000000
1187,Lappajarvi,63.15200000000,23.73330000000
13339,,63.55410000000,27.16900000000
2116,Kolmajarvi,63.29050000000,25.78430000000
1702,Kozhozero,63.09500000000,38.15630000000
1218,Kivijarvi,63.14290000000,25.15930000000
655,Nilakka,63.19080000000,26.55570000000
9910474,,62.65210000000,65.18540000000
1363,Minijarvi,62.67190000000,29.24260000000
391,Keitele,63.07840000000,25.74270000000
1615,Pal?ÇÖyeozero,62.51770000000,33.78240000000
845,Juojarvi,62.59800000000,28.88080000000
9910475,,62.31250000000,65.87660000000
497,Vodlozero,62.26300000000,36.83570000000
955,,62.47180000000,34.02290000000
740,Pyhajarvi,61.86110000000,30.00170000000
835,,62.11640000000,23.86080000000
861,Femunden,62.16710000000,11.87720000000
1617,,61.99650000000,27.06940000000
925,Janis Yarvi,61.99360000000,30.90300000000
676,Yam,61.94350000000,33.15310000000
2567,Piltanlor,61.71330000000,73.35700000000
1256,Suonne,61.65140000000,26.41010000000
4449,Puulavesi,61.81040000000,26.50560000000
9910476,,61.65930000000,67.03020000000
643,Nasijarvi,61.52600000000,23.82870000000
540,Lacha,61.31360000000,38.76510000000
1957,Visohisarvi,61.13320000000,26.73120000000
1213,Langelmavesi,61.56750000000,24.42940000000
1602,,61.29070000000,24.16730000000
1167,Tormemtor,61.21580000000,79.37460000000
9910477,,61.28410000000,74.30930000000
1580,Vesijarvi,61.03590000000,25.56930000000
9910037,,61.23440000000,26.00040000000
1083,Pyhajarvi,61.00110000000,22.29140000000
9910478,,60.88570000000,72.67260000000
4225,,60.63660000000,69.34760000000
427,Vozhe,60.70820000000,38.90700000000
612,Siljan,60.87220000000,14.78160000000
9910479,,60.53680000000,69.51420000000
1210,Randsfjorden,60.26750000000,10.39050000000
3382,,60.08650000000,63.02500000000
1249,Tyrifjorden,60.03530000000,10.20070000000
409,Kubenskoye,59.64630000000,39.44190000000
1496,,59.63540000000,65.84560000000
1550,,59.28650000000,28.16810000000
1317,Stora Le,59.31050000000,11.78950000000
406,Hjalmaren,59.28290000000,15.51790000000
689,Vortis-Jarv,58.29080000000,26.04660000000
1304,Sommen,58.00600000000,15.20190000000
911,Bolshoy Uvat,57.53470000000,70.46150000000
1196,,57.16640000000,33.06920000000
999,Bolmen,56.86270000000,13.70860000000
654,Saltaim,56.14010000000,71.92630000000
9910480,,56.01270000000,65.78710000000
963,Ubinskoye,55.46820000000,80.06470000000
1584,Argazinskoye,55.39480000000,60.38050000000
1438,Baunt,55.19240000000,113.00700000000
774,Saitlan,54.97980000000,78.58060000000
466,Neagh,54.61350000000,-6.41793000000
705,Kronotskoye,54.80130000000,160.23100000000
872,Malyye Chany,54.54280000000,77.99220000000
2405,Ul'ken-karoy,53.99510000000,72.00250000000
1969,Kilibek,53.87310000000,70.64450000000
839,,53.83180000000,72.95430000000
1283,Sniardwy,53.75540000000,21.72060000000
1539,Muritz,53.40200000000,12.73270000000
1716,Ree,53.49380000000,-7.95500000000
1142,,53.42080000000,73.77600000000
1185,,53.44440000000,140.09200000000
572,Orel',53.44730000000,139.69900000000
533,Seletyteniz,53.22950000000,73.32550000000
1054,Corrib,53.44760000000,-9.24661000000
1520,,53.31610000000,77.99120000000
324,Kulundinskoye,52.98540000000,79.56800000000
10672,Kushmurun,52.68120000000,64.78440000000
2201,Zhalauly,52.88030000000,74.12070000000
867,Sayano-Shushenskoye,52.57020000000,91.82830000000
981,Kuchukskoye,52.70110000000,79.77700000000
1663,Bol'sho Yeravnoye,52.62040000000,111.49400000000
1536,Gor'koye,52.47030000000,81.31640000000
522,Udyl',52.14630000000,139.88200000000
480,Chukchagirskoye,51.99500000000,136.57700000000
770,Teletskoye,51.52520000000,87.69920000000
640,,51.65570000000,140.25400000000
920,Evoron,51.47950000000,136.50700000000
1037,Gusinoye,51.19590000000,106.39900000000
3790,,50.75270000000,60.88510000000
860,Shalkar,50.56010000000,51.68450000000
9910481,,50.37600000000,64.14550000000
9910482,,50.27500000000,137.36600000000
710,Orog,50.15390000000,91.01940000000
702,Torey Lakes,49.98330000000,115.51500000000
529,Bolon',49.90400000000,136.48100000000
928,Karasor,49.81630000000,75.28060000000
9910483,,49.98650000000,49.94440000000
604,Achit,49.49520000000,90.55880000000
1058,Sangiyn Dalay,49.18500000000,99.01990000000
4903,,49.07410000000,48.12780000000
1500,El'ton,49.14640000000,46.67770000000
9900046,,49.06890000000,117.94300000000
9910484,,49.06530000000,48.48050000000
404,Markakol',48.74550000000,85.75990000000
9900021,Inder,48.45880000000,51.92080000000
319,Har,48.09860000000,93.21000000000
490,Dorgon,47.70920000000,93.43050000000
291,Buir,47.81370000000,117.70200000000
1209,Neusiedl,47.81860000000,16.76630000000
385,Constance,47.61150000000,9.38196000000
222,Ulungur,47.25680000000,87.28810000000
776,,47.01830000000,41.19380000000
1485,Luzern,46.98310000000,8.45249000000
820,Neuchatel,46.90330000000,6.85627000000
311,Balaton,46.83350000000,17.70630000000
1293,,46.70390000000,124.37700000000
1416,Tiligul'skiy,46.91360000000,31.02600000000
241,Sasykkol,46.57550000000,80.91350000000
256,Manych-Gudilo,46.36320000000,42.72740000000
1521,Khadzhideyskiy,46.65240000000,30.56030000000
1420,,46.56710000000,124.10200000000
1321,Uyaly,46.43470000000,81.28240000000
313,Geneva,46.45160000000,6.54027000000
1075,Kamyshlybas,46.19390000000,61.78820000000
250,,46.17660000000,33.89350000000
1599,,45.80760000000,38.22830000000
8340,Manas,45.84010000000,86.03800000000
826,Maggiore,45.96650000000,8.65351000000
734,Boon Tsagaan,45.59320000000,99.12990000000
858,,45.65790000000,29.65990000000
9078,,45.48090000000,117.53600000000
780,Yalpug,45.29830000000,28.66470000000
615,Quagan,45.25050000000,124.27800000000
753,Kiziliashskiy,45.12830000000,37.04000000000
2283,Orog,45.05700000000,100.73100000000
471,Ebi,44.87350000000,82.96120000000
9910489,Sinoe,44.59260000000,28.85330000000
1587,Valli di Comacchio,44.60750000000,12.16970000000
1072,Berre,43.46640000000,5.10370000000
908,Dalai,43.29090000000,116.63500000000
1372,Trasimeno,43.14090000000,12.10610000000
1462,Bolsena,42.59390000000,11.93550000000
486,Scutari,42.18420000000,19.31800000000
199,Bosten,41.98610000000,87.08140000000
638,Song-kel,41.84040000000,75.15120000000
1274,,41.16620000000,61.74070000000
493,Ohrid,41.03600000000,20.71380000000
1342,Cildir,41.04660000000,43.24170000000
677,Prespa,40.89370000000,21.06390000000
1079,Chatyr-kel',40.62180000000,75.28110000000
1682,,40.61830000000,64.53300000000
594,Iznik,40.44110000000,29.52240000000
1464,Ulubat,40.14740000000,28.58940000000
851,Kuyumazarskoye,39.84820000000,64.84590000000
1655,Xiaoxihaiz Shuiku,39.72550000000,78.74330000000
741,Tudakol?ÇÖ,39.11250000000,64.15920000000
9910490,,39.17330000000,118.77000000000
441,Karakul,39.04110000000,73.49160000000
1532,Suhai,38.86800000000,93.88080000000
1529,Ercek,38.67520000000,43.57910000000
9910290,Eber,38.64930000000,31.16590000000
1634,Aksehir,38.51470000000,31.41380000000
297,Hala,38.29480000000,97.58880000000
1476,Gas Hure,38.13450000000,90.78740000000
399,Egridir,38.02000000000,30.91340000000
2595,Acigol,37.85270000000,29.92160000000
1236,Burdur,37.73540000000,30.18210000000
278,Beysehir,37.77790000000,31.50710000000
186,Ayakkum,37.55540000000,89.39100000000
1588,Inawashiro ko,37.47650000000,140.09300000000
938,,37.50030000000,93.93230000000
1108,Toson,37.12090000000,96.94020000000
9910491,,37.15330000000,119.07000000000
333,Aqqikkol,37.07640000000,88.42230000000
1205,Dabsan,37.04650000000,95.02110000000
9910288,,36.69620000000,99.11180000000
524,Arkatag,36.34470000000,89.41390000000
1433,Dongping,35.99750000000,116.20000000000
4896,,36.04550000000,37.51950000000
1604,,35.92630000000,90.62860000000
644,Lixi'Oidain,35.74780000000,90.19700000000
536,Hoh Sai,35.73470000000,92.86420000000
505,Hoh Xil,35.58700000000,91.14380000000
713,Donggi Cona,35.26570000000,98.62690000000
453,Dogaicoring Quang,35.32500000000,89.24930000000
684,Aksayquin,35.20370000000,79.84650000000
332,Xijir Ulan,35.21200000000,90.30600000000
950,Dorge,35.22100000000,92.13450000000
279,Ngoring,34.90390000000,97.70320000000
708,Gozha,35.01840000000,81.00070000000
1228,Bairab,35.03530000000,83.13160000000
1135,Bangdag,34.95240000000,81.56430000000
2647,,35.01100000000,116.84600000000
330,Gyaring,34.93050000000,97.26090000000
274,Wulanwula,34.76400000000,90.36750000000
892,Weishan,34.60460000000,117.25100000000
373,Dogai Coring,34.55230000000,89.03550000000
1002,Memar,34.22040000000,82.30710000000
1915,,34.01650000000,6.04090000000
1380,Chem,34.15890000000,79.77950000000
1573,Aru,33.96320000000,82.39180000000
458,Lumajangdong,34.02390000000,81.61690000000
270,Pangong,33.72060000000,78.70630000000
1463,Gyeze Caka,33.95200000000,80.90570000000
1310,,33.84830000000,88.59070000000
169,Migriggyangzham,33.39630000000,90.09890000000
922,Habbaniyah,33.28170000000,43.53580000000
1100,Yaggain Canco,33.01620000000,89.79140000000
2070,,32.92580000000,118.04900000000
1169,Morari,32.89790000000,78.31420000000
9900051,Tiberias,32.80780000000,35.59010000000
368,Kaoyu,32.82670000000,119.30300000000
1238,Wabu,32.40150000000,116.89000000000
921,,32.44940000000,89.97910000000
1479,,32.17400000000,45.58000000000
729,Namru,32.07530000000,90.86300000000
897,Na,32.02670000000,91.48000000000
582,Ta-tse,31.89580000000,87.53500000000
1444,Bangkog,31.71770000000,89.47590000000
1111,Dogen,31.70880000000,91.15920000000
503,Dagze,31.71670000000,88.00030000000
660,Ngoin,31.59330000000,88.76510000000
242,Chao,31.50600000000,117.57000000000
367,Ngangla Ringco,31.53260000000,82.96230000000
9900040,Dead Sea,31.53380000000,35.49000000000
966,P'eng-Ts'o,31.50910000000,90.96740000000
1172,Ge,31.59440000000,119.81500000000
543,Hamun-E Saberi,31.24250000000,61.27470000000
1084,Shijiu,31.47220000000,118.88000000000
1644,Cha-pu-yeh ch'a-k'a,31.41080000000,84.05970000000
1585,Yangcheng,31.42470000000,120.76900000000
382,Ko-jen,31.06230000000,88.44350000000
691,Pa-Mu-Ts'o,31.25160000000,90.58730000000
1186,Bong,31.21860000000,91.16220000000
916,Jen-ch'ing hsiu-pu-ts'o,31.27790000000,83.44950000000
1405,,31.24250000000,84.96010000000
1440,Kuo-mang,31.21530000000,89.20230000000
374,T'a-jo,31.13800000000,84.11680000000
1285,Nanyi,31.10460000000,118.95500000000
394,Ang-tzu,31.06370000000,87.15430000000
1224,,30.93400000000,89.63120000000
185,Zhari Namco,30.92690000000,85.61650000000
221,Tangra,31.23740000000,86.70780000000
1161,P'a-lung,30.88980000000,83.57990000000
686,La-ang,30.69050000000,81.23280000000
434,Ma-p'ang yung-ts'o,30.68450000000,81.47110000000
12261,Chang,30.40550000000,112.35700000000
832,Hsu-ju,30.29440000000,86.41370000000
649,Liangzi,30.23500000000,114.52200000000
1174,,30.15580000000,84.82460000000
1905,Futou,30.02280000000,114.20200000000
9910368,Hong,29.89860000000,113.40800000000
1523,,29.83020000000,85.74220000000
506,Tashk,29.71370000000,53.55820000000
756,Qarun,29.46260000000,30.61550000000
1012,Maharlu,29.44940000000,52.80640000000
198,Dongting,29.26490000000,112.88200000000
331,Yamdrok,28.95460000000,90.71380000000
648,P'ei-k'u t'so,28.83160000000,85.58440000000
608,P'u-mo-ts'o,28.56580000000,90.39780000000
626,Dian Chi,24.82320000000,102.68600000000
811,Fuxian,24.51930000000,102.88600000000
3319,,24.30280000000,68.62680000000
9910292,,24.01800000000,69.01770000000
7386,Toshka Lakes,23.09300000000,31.27860000000
8039,Guiers,16.15960000000,-15.86050000000
217,Bay,14.39170000000,121.15900000000
755,Taal,13.94480000000,121.01600000000
1417,Afrera ye'ch'ew,13.28360000000,40.91830000000
890,Fitri,12.73230000000,17.56730000000
814,Abhe Bid,11.17880000000,41.78100000000
1508,Iro,10.10740000000,19.42180000000
1188,Mainit,9.45417000000,125.52100000000
502,Lano,7.87762000000,124.25500000000
430,Ziway,7.98646000000,38.83220000000
754,Langano,7.60107000000,38.75570000000
1305,Abayata,7.61597000000,38.59620000000
584,Shala,7.46632000000,38.57440000000
9910492,Piso,6.73195000000,-11.25400000000
585,Ch'Amo,5.83637000000,37.55740000000
1394,Bisina,1.62297000000,33.94530000000
11374,,0.95040200000,112.21100000000
893,Baringo,0.57236300000,36.07150000000
1077,Zonag,35.54660000000,91.92410000000
6,Tanganyika,-6.85861000000,30.12960000000
9,Malawi,-12.25420000000,34.24020000000
20,Titicaca,-15.88260000000,-69.35210000000
131,Poopo,-18.81360000000,-67.08550000000
46,Chiquita,-30.53630000000,-62.62090000000
104,Buenos Aires,-46.46920000000,-71.55690000000
178,San Martin,-48.86370000000,-72.66510000000
145,Viedma,-49.69610000000,-72.23680000000
122,Argentino,-50.22060000000,-72.63110000000
86,Edward,-0.35826200000,29.59930000000
79,Kivu,-1.92616000000,29.24440000000
25,Rukwa,-7.97148000000,32.19220000000
31,Mweru,-9.00852000000,28.72170000000
167,Mweru wa Ntipa,-8.69110000000,29.72960000000
100,Bangweulu,-11.24780000000,29.91590000000
164,Chilwa,-15.34700000000,35.70490000000
1425,,-1.33770000000,-56.66620000000
679,,-1.81988000000,-56.07840000000
310,Baia do Caxiuana,-1.78417000000,-51.36060000000
9910343,,-1.93477000000,-55.77560000000
153,,-2.17578000000,-56.45040000000
1927,,-2.38581000000,-45.43280000000
723,,-1.97244000000,-56.89700000000
121,Lago Grande Do Curuai,-2.21019000000,-55.26410000000
478,,-2.19462000000,-54.72180000000
215,,-2.31887000000,-54.35640000000
397,,-2.62135000000,-58.00130000000
1088,Amana,-2.62030000000,-64.65030000000
825,,-3.14914000000,-56.86520000000
491,,-3.22254000000,-57.11280000000
370,,-3.01599000000,-58.29190000000
681,Grande de Manacapuru,-3.06774000000,-61.44800000000
9910403,,-3.32536000000,-60.83620000000
464,Tefe,-3.33143000000,-64.76510000000
432,,-3.74519000000,-57.33110000000
659,Badajos,-3.36527000000,-62.65760000000
449,Biarini,-3.55156000000,-63.23210000000
912,Mamia,-4.32643000000,-63.08770000000
213,Coari,-4.16078000000,-63.38730000000
1105,Aiapua,-4.41582000000,-62.14100000000
1373,Taciula,-4.50581000000,-60.65830000000
789,,-5.05493000000,-62.48000000000
542,,-12.91260000000,-65.52710000000
565,,-13.03100000000,-65.94270000000
1511,,-13.16390000000,-65.77010000000
1081,,-13.96870000000,-66.98380000000
1567,Arapa,-15.17360000000,-70.01610000000
960,,-17.12280000000,-58.39330000000
577,,-17.50690000000,-57.77760000000
663,,-32.08040000000,-60.86560000000
1131,,-34.33010000000,-62.25760000000
1926,Llancanelo,-35.55060000000,-69.18280000000
1159,,-35.98950000000,-62.43740000000
1203,Monte,-36.96150000000,-62.41220000000
1624,Epecuen,-37.13840000000,-62.86370000000
3559,,-37.56520000000,-67.54150000000
3131,,-38.21300000000,-66.09070000000
1481,Pelegrini,-38.70790000000,-67.97350000000
969,Villarrica,-39.25590000000,-72.09520000000
1418,Calafquem,-39.51660000000,-72.14620000000
1518,Huechulafquen,-39.76830000000,-71.40720000000
1461,Ranguipulli,-39.70230000000,-72.28310000000
423,Ranco,-40.23660000000,-72.48710000000
1053,Puyehue,-40.66890000000,-72.46630000000
750,Rupanco,-40.80120000000,-72.56100000000
336,Nahuel Huapi,-41.09700000000,-71.32030000000
975,Todos los Santos,-41.11000000000,-72.24950000000
214,Llanquihue,-41.14530000000,-72.81080000000
1408,Yelcho,-43.30920000000,-72.28670000000
1184,General Vintter,-43.93430000000,-71.53370000000
426,Musters,-45.40150000000,-69.17020000000
766,Colhue Huapi,-45.54970000000,-68.78180000000
588,Cochrane,-47.16280000000,-72.15870000000
883,,-49.01210000000,-73.95670000000
515,Cardiel,-48.91660000000,-71.21530000000
9910029,,-50.65310000000,-72.96740000000
880,Toro,-51.20780000000,-72.73560000000
9910283,Blanca,-52.40590000000,-71.19020000000
1179,Blanc,-54.05320000000,-69.02530000000
304,Fagnano,-54.56880000000,-67.61700000000
637,George,-0.00809625000,30.23490000000
2063,Semajang,-0.23112500000,116.45600000000
9900079,Djenpang,-0.43964500000,116.18100000000
1510,Danau Singkarak,-0.61223800000,100.54100000000
239,Tumba,-0.76133100000,18.03150000000
1208,Naivasha,-0.76826400000,36.35110000000
666,Onangue,-0.99090000000,10.08960000000
482,Danau Poso,-1.91769000000,120.61400000000
1215,Danau Romberbai,-1.86663000000,137.91000000000
973,Burigi,-2.02942000000,31.22060000000
1250,Rweru,-2.38620000000,30.32050000000
1035,Danau Matano,-2.48311000000,121.34300000000
314,Towuti,-2.81978000000,121.51900000000
450,Manyara,-3.60783000000,35.81760000000
1220,Danau Paniai,-3.88502000000,136.31100000000
3157,,-4.10853000000,119.95700000000
844,Chambri,-4.25713000000,143.11100000000
1308,Danau Ranau,-4.84786000000,103.93900000000
1844,,-5.20239000000,31.18750000000
447,Murray,-6.99669000000,141.49300000000
1267,Kabamba,-7.89353000000,27.04250000000
1264,Zimbambo,-8.03055000000,26.92540000000
563,Kisale,-8.26701000000,26.49440000000
261,Upemba,-8.62755000000,26.39500000000
1423,Kabele,-8.92660000000,25.97060000000
1026,Kampolombo,-11.78110000000,29.70160000000
1101,Chiuta,-14.81180000000,35.84470000000
550,Malombe,-14.64230000000,35.24950000000
1082,Kinkony,-16.15450000000,45.84750000000
986,Alaotra,-17.48210000000,48.52090000000
1477,,-20.20380000000,127.45000000000
801,,-21.37110000000,124.68000000000
1098,Ihotry,-21.94960000000,43.68740000000
591,,-22.06680000000,122.96900000000
875,,-22.48350000000,123.79400000000
829,,-24.37410000000,33.59790000000
468,,-26.67870000000,123.17300000000
557,St. Lucia,-28.22600000000,32.46750000000
819,,-28.66820000000,124.29400000000
1578,,-28.79460000000,120.86800000000
1014,,-29.48140000000,122.01000000000
1390,,-29.72110000000,115.80500000000
9913184,,-30.64940000000,122.09300000000
9910340,,-32.15560000000,135.97500000000
1556,Victoria,-33.98940000000,141.27500000000
9900030,,-35.11140000000,149.42800000000
1554,Hindmarsh,-36.04910000000,141.90600000000
871,Corangamite,-38.21990000000,143.38700000000
290,Taupo,-38.79580000000,175.89500000000
888,Wanaka,-44.52790000000,169.11200000000
603,Wakatipu,-45.08560000000,168.55700000000
353,Iguazu,-25.25820000000,-55.31870000000
652,Malpasp,17.12550000000,-93.60300000000
1296,Habbaniyah,34.31090000000,42.21960000000
334,Roseires reservoir,11.44870000000,34.57000000000
830,Toktogul'skoye,41.79030000000,72.91650000000
936,Bagre reservoir,11.54390000000,-0.68485000000
1383,Bankim,6.15004000000,11.33070000000
9900004,Barragem Pau dos Ferros,-6.17435000000,-38.16950000000
3349,Yardi,10.20180000000,40.47880000000
634,Inhernillo,18.58090000000,-101.84700000000
9900007,Big Brown Creek,31.79420000000,-96.06330000000
366,Flathead,47.88180000000,-114.16000000000
9900011,Heiwuwan reservoir,31.88110000000,113.12000000000
4292,Kajaki reservoir,32.32400000000,65.22570000000
517,Manso reservoir,-15.03210000000,-55.60450000000
1315,Massinger Barragen,-23.89430000000,32.04280000000
788,Mosul Dam Lake,36.77200000000,42.71640000000
2212,Thorisvatn,64.26980000000,-18.85470000000
1247,Richland_Chambers reservoir,31.99060000000,-96.26480000000
528,Selingue,11.38960000000,-8.25109000000
5747,Sirinumu reservoir,-9.49904000000,147.48300000000
1345,Tawakoni,32.89040000000,-96.00820000000
929,Junin,-11.01400000000,-76.11660000000
1039,Koitere,62.96590000000,30.72800000000
645,Hoytiainen,62.85830000000,29.63510000000
556,Powell,37.11250000000,-110.98800000000
581,Kayrakkumskoye,40.31130000000,70.10230000000
467,Mjosa,60.74250000000,10.93800000000
1978,Kikuletwa,-3.69077000000,37.41950000000
725,Tshchikskoye,44.99680000000,39.35730000000
894,Tarbela,34.23270000000,72.83100000000
635,Zhelin,29.28510000000,115.26400000000
1018,Koocanusa,48.63280000000,-115.28700000000
1920,Cascade,44.61620000000,-116.09800000000
1096,Falcon reservoir,26.68210000000,-99.18320000000
15066,Araaras,-4.26147000000,-40.44120000000
1276,Barragem Passo Fundo,-27.66320000000,-52.75380000000
898,Ondozero,63.79450000000,33.35760000000
378,Ukai,21.46270000000,73.96730000000
2052,Lam Pao,16.63960000000,103.40300000000
775,Noi,15.02010000000,105.38400000000
530,Sheksna,59.65560000000,38.42480000000
405,Diefenbaker,50.68550000000,-107.45100000000
696,Tobin,53.59310000000,-103.49500000000
1021,Victoria,48.31070000000,-57.35680000000
431,Sam Rayburn reservoir,31.18200000000,-94.11020000000
1729,Dale Hollow,36.57320000000,-85.28180000000
2452,Pyhajarvi,61.33440000000,23.54840000000
671,Emborcacao,-18.41970000000,-47.76320000000
421,Itumbiara,-18.32950000000,-48.87850000000
2343,Sterkfonterin,-28.45890000000,29.02510000000
790,Mtera,-7.03714000000,35.82240000000
1326,Franklin D reservoir,48.07060000000,-118.26200000000
1302,Jose_Richa,-25.58270000000,-53.25670000000
1047,Peixoto,-20.34150000000,-46.93730000000
1322,North_Knife,58.11650000000,-97.05830000000
1117,Osage,38.17200000000,-92.72250000000
1138,Sidney Lanier,34.31300000000,-83.91770000000
673,Nova_Ponte,-19.14100000000,-47.28650000000
5742,Quiminha,-8.96291000000,13.94520000000
381,Bansagar,24.13740000000,81.17870000000
1828,Thuy_Dien,11.82400000000,107.10600000000
1547,Indrawati,19.24430000000,82.83250000000
463,Adjuntas,23.93930000000,-98.77250000000
1181,Tiga,11.37710000000,8.45491000000
642,Vaaldam,-27.00040000000,28.30420000000
402,Mingechaurskoye,40.93790000000,46.75770000000
1062,Bears,31.99610000000,76.06050000000
255,Han Shui,32.58650000000,111.35900000000
579,Govind Ballabah Pant,24.09400000000,82.82210000000
2900,Clear Lake reservoir,41.86820000000,-121.14100000000
375,Presa Miguel Aleman,18.30620000000,-96.58640000000
3064,unknown,2.59929000000,-75.48190000000
1625,Eucumbene,-36.12610000000,148.77000000000
327,Lepe,-22.80270000000,-51.01120000000
465,Barra Bonita,-23.33000000000,-48.91210000000
709,Ujani,18.21620000000,74.99440000000
1328,Bhumibol,17.32090000000,98.87150000000
813,Sirikit,17.88360000000,100.47600000000
419,unknown,18.60580000000,102.67800000000
552,unknown,14.65960000000,99.07390000000
2645,Senanayaka,7.18711000000,81.47940000000
613,Livingston,30.76490000000,-95.15610000000
1068,Hartwell,34.54340000000,-83.12020000000
685,J Strom Thurmend,33.65940000000,-82.41860000000
620,Marion,33.46520000000,-80.24000000000
9900029,Poco da cruz,-8.48106000000,-37.66510000000
230,La Grande 4 Reservoir,53.97710000000,-73.22000000000
149,Opinaca reservoir,52.30850000000,-76.55720000000
240,Pipmuacan reservoir,49.50300000000,-70.66890000000
232,Fort Peck,47.72510000000,-106.84300000000
335,Winnebago,44.01370000000,-88.40970000000
284,Toledo Bend reservoir,31.48310000000,-93.73720000000
348,Angostura reservoir,16.10840000000,-92.61490000000
265,Itaparica reservoir,-8.91097000000,-38.54700000000
254,Tres Marias reservoir,-18.65870000000,-45.27220000000
309,Sao Simao reservoir,-18.70010000000,-50.16810000000
345,Agua Vermelha reservoir,-19.93770000000,-49.92290000000
351,Promissao reservoir,-21.47940000000,-49.47400000000
175,Negro reservoir,-32.69300000000,-56.04340000000
200,Oulu,64.36810000000,27.03110000000
161,llmen,58.25050000000,31.35810000000
243,Ataturk Dam,37.57500000000,38.44160000000
285,Assad,36.00920000000,38.14270000000
355,Gandhisagar reservoir,24.42420000000,75.47920000000
308,Lagdo reservoir,8.88364000000,13.84460000000
489,Kossour reservoir,7.16952000000,-5.57958000000
276,Buyo reservoir,6.54239000000,-7.02250000000
219,Argyle reservoir,-16.31540000000,128.76900000000
51,Southern Indian,56.94210000000,-99.08530000000
26,Reindeer,57.24860000000,-102.40000000000
55,Caniapiscau reservoir,54.44180000000,-70.03930000000
18,Michikamau,53.99090000000,-63.82120000000
77,Cedar,53.33110000000,-100.12700000000
110,Manicouagan reservoir,51.17760000000,-68.44380000000
119,Seul,50.27270000000,-92.37430000000
36,Nipigon,49.82070000000,-88.51870000000
170,Saint-Jean,48.58290000000,-72.02880000000
133,Gouin reservoir,48.45620000000,-75.10390000000
142,Fort Berthold reservoir,47.75990000000,-102.37800000000
132,Oahe,45.42570000000,-100.60800000000
135,Okeechobee,26.94250000000,-80.80490000000
88,Balbina reservoir,-1.44420000000,-59.88820000000
74,Tucurui reservoir,-4.28681000000,-49.60000000000
116,Sobradinbo reservoir,-9.62278000000,-41.58480000000
166,llha solteira reservoir,-20.34020000000,-51.27420000000
136,Itaipu,-24.93050000000,-54.44200000000
97,Khantayskoye reservoir,67.60820000000,87.71110000000
44,Saimaa,61.80060000000,28.75030000000
117,Buhayrat ath Tharthar,33.99970000000,43.26330000000
17,Onega,61.75810000000,35.35640000000
27,Vanern,59.03220000000,13.66880000000
113,Ust llimskoye reservoir,57.78870000000,102.57200000000
70,Bratsk reservoir,55.02180000000,102.52600000000
177,Novosibirskoye,54.41890000000,82.23190000000
9900038,Ljsselmeer,52.60550000000,5.39585000000
39,Zaysan,48.03190000000,83.80810000000
101,Kremenchuk reservoir,49.33620000000,32.64090000000
89,Tsimlyanskoye reservoir,48.38220000000,43.21820000000
92,Kakhovka reservoir,47.51440000000,34.35030000000
124,Hungtze,33.32000000000,118.57700000000
560,Razazah,32.76320000000,43.62830000000
28,Nasser,22.83080000000,32.31420000000
174,Kainji Reservoir,10.29590000000,4.54474000000
29,Volta,7.52863000000,-0.35033600000
81,Cahora Bassa Reservoir,-15.68180000000,31.63890000000
32,Kariba Reservoir,-17.04290000000,27.93850000000
65,Robert Bourassa Reser,53.64110000000,-77.19500000000
84,La Grande 3Reser,53.79260000000,-75.13760000000
13,Ontario,43.70580000000,-77.66730000000
7,Baikal,53.70420000000,108.41300000000
3,Victoria,-1.22547000000,33.02140000000
207,Votkinsk reservoir,57.01670000000,54.43630000000
301,Chardarinskoye,41.11030000000,68.24050000000
6340,Saratov Reservoir,52.20160000000,48.20490000000
68,Volgograd reservoir,50.19730000000,45.60240000000
208,Gorkovsky reservoir,57.36990000000,42.86640000000
196,Nizhnekamsk reservoir,55.80160000000,53.24530000000
42,Rybinsk Reservoir,58.56510000000,38.17540000000
118,Kama reservoir,57.94980000000,56.74230000000
6385,Hubbard Creek,32.81080000000,-98.97780000000
1866,Alcantara,39.76920000000,-6.74024000000
1635,Canyon,40.23400000000,-121.11000000000
11373,Barragem_do_Caia,39.01480000000,-7.15922000000
2468,Berryessa,38.58590000000,-122.22600000000
51955,Encoro_de_Salas,41.92360000000,-7.93525000000
9895,Puente_Nuevo,38.12140000000,-4.96531000000
1233,Serena,38.85330000000,-5.10622000000
9087,Yesa,42.60210000000,-1.09981000000
12532,Bardwell,32.28540000000,-96.66620000000
2513,Caddo,32.68760000000,-94.07450000000
111,Williston,55.69590000000,-123.59800000000
156,Qapshaghay Bogeni Reservoir,43.84990000000,77.39490000000
4082,Houston,29.94160000000,-95.16050000000
1422,Alvaro Obregon,27.87120000000,-109.84700000000
339,Three Gorges reservoir,29.93420000000,107.78200000000
1134,Cumberland,36.94050000000,-84.87920000000
439,Kinbasket,52.03930000000,-118.24500000000
607,Grajau,-6.79954000000,-44.04460000000
1675,Paralbuna,-23.51680000000,-45.46940000000
1019,Kasumigaura,36.04070000000,140.37500000000
9900026,La Grande 1,53.75450000000,-78.02070000000
2232,Ertan,26.89390000000,101.70600000000
1805,Shiroro,9.97137000000,6.91114000000
3984,Tehri,30.39520000000,78.47860000000
1988,Krasno Oskol,49.24260000000,37.52680000000
1470,Eildon,-37.23680000000,145.98900000000
9900027,Zhexi,28.11030000000,110.99000000000
90,Vilyuy reservoir,62.96410000000,111.23000000000
96,Krasnoyarsk reservoir,54.43280000000,91.24560000000
614,Arrow,49.38700000000,-117.97900000000
9900043,Kuybyshev Reservoir,55.39000000000,50.12750000000
562,Srisailam reservoir,15.94110000000,78.40260000000
383,Kanevskoye,49.97060000000,31.26750000000
1007,Shuifeng,40.63590000000,125.29000000000
1008,John H. Kerr Dam,36.56900000000,-78.46200000000
1010,Planicie Banderita,-38.60150000000,-68.56000000000
1013,Rajghat,24.63140000000,78.25670000000
1024,Capanda,-9.79498000000,15.66310000000
1028,Umluspen,65.24210000000,16.75440000000
1029,Bamendjin,5.80658000000,10.57230000000
1031,Rio Hondo,-27.53730000000,-65.00060000000
1042,Rajjaprabha,9.06406000000,98.65960000000
1065,Koka,8.36538000000,39.04670000000
1102,Martin,32.80340000000,-85.90400000000
1107,Kayrakkumskoye,37.18560000000,61.32370000000
1112,Dau Tieng,11.39440000000,106.33100000000
1144,Blakely Mountain Dam,34.60850000000,-93.26940000000
1189,Hawea Lake Control,-44.51950000000,169.26300000000
1190,Pickwick Landing,34.89270000000,-87.98230000000
1191,Balimela,18.18560000000,82.17430000000
1194,Casa de Piedra,-38.25040000000,-67.60440000000
1226,Miena Rockfill,-41.88010000000,146.74500000000
123,Yacyreta,-27.39120000000,-56.27180000000
1234,Pasak Chonlasit,14.96790000000,101.05100000000
1237,Bull Shoals,36.48710000000,-92.78500000000
1241,International Amistad Dam,29.47020000000,-101.11900000000
1282,CANYON FERRY,46.44270000000,-111.54000000000
1286,Sardis Dam,34.48030000000,-89.65230000000
1288,Jayakwadi Stage 1,19.54130000000,75.21510000000
130,Brokopondo,4.70019000000,-55.03650000000
1311,P.K. le Roux,-30.19700000000,24.90940000000
1335,Oologah Lake,36.54950000000,-95.59110000000
1361,Temengor,5.52341000000,101.36900000000
1377,Grenada Dam,33.81210000000,-89.64120000000
1398,Powell,50.01250000000,-124.43900000000
1451,Liujiaxia,35.82370000000,103.19700000000
1457,Lake George Outlet,43.60850000000,-73.56890000000
146,Laforge 1,54.35700000000,-72.17960000000
1483,Pongolapoort,-27.40120000000,31.95520000000
1494,Bhadra,13.63420000000,75.56810000000
1526,Kingsley,41.25240000000,-101.82700000000
1558,Joe B. Hogsett Dam,32.23410000000,-96.10970000000
1560,Acu,-5.81764000000,-36.91790000000
1562,Beaver,36.30410000000,-93.87180000000
1579,Pensacola,36.60860000000,-94.85020000000
158,Lower Red Lake Dam,48.03280000000,-94.90300000000
1596,Kalri Lake,24.95620000000,68.04200000000
1600,Cana Brava,-13.54670000000,-48.13920000000
165,RAINY LAKE,48.64740000000,-93.00950000000
184,Serra da Mesa,-14.19550000000,-48.58500000000
205,Kumskaya,67.63240000000,32.98530000000
206,Kaltimo,63.23050000000,29.66500000000
227,El Chocon,-39.45290000000,-69.00530000000
234,Furnas,-21.35640000000,-46.01140000000
2628,Table Rock Dam,36.59130000000,-93.39460000000
267,Biwako-Kaihatsu,35.36370000000,136.17500000000
288,Tres Irmaos,-20.87720000000,-50.79120000000
289,Salto Grande,-30.91300000000,-57.86070000000
293,Verkhne-Tulomskaya,68.23340000000,30.61080000000
306,Kiev,50.94270000000,30.47230000000
307,Outardes 4,50.14890000000,-69.15100000000
320,Kureiskaya,67.04990000000,89.52500000000
342,Hirakud,21.65780000000,83.75390000000
387,Lake Manouan,50.69380000000,-70.65020000000
390,Kniazhaya Cuba,66.68290000000,32.03700000000
413,Dnieprod Zerzhinsk,48.84230000000,34.01870000000
414,RAAD ACORN RIDGE,48.04680000000,-98.93570000000
433,Xinan Jiang,29.58070000000,118.92300000000
445,Loma de la Lata,-38.54720000000,-68.81480000000
456,Manantali,13.08700000000,-10.32970000000
481,Garda,45.54600000000,10.60160000000
507,Chavantes,-23.37040000000,-49.62140000000
512,Laforge 2,54.64110000000,-70.78410000000
520,Itezhi-Tezhi,-15.73360000000,25.92640000000
523,Longyangxia,36.02040000000,100.71600000000
525,Te Anau Lake Control,-45.17450000000,167.80700000000
535,Kenyir,5.03214000000,102.72400000000
544,Rapides des Quinze,47.60470000000,-78.74290000000
546,Tungabhadra,15.19100000000,76.15220000000
547,Utah Lake Outlet,40.20440000000,-111.83200000000
554,Fort Randall,48.24470000000,-56.59260000000
559,Zeid,37.45990000000,65.14600000000
568,Khao Laem,14.93280000000,98.51250000000
573,Xinfengjiang,23.85290000000,114.55100000000
575,Petit Saut,4.88051000000,-53.03070000000
576,Lokka,67.92410000000,27.65130000000
586,Moosehead Lake East Dam,45.60720000000,-69.66810000000
592,Thaphanseik,23.43670000000,95.36640000000
595,Volta Grande,-20.13230000000,-48.03520000000
599,Hendrik Verwoerd,-30.64160000000,25.64360000000
624,Dozois,47.47130000000,-76.96800000000
632,RENGALI,21.36620000000,85.05790000000
650,Tri An 1,11.17630000000,107.14600000000
651,Constitucion,-33.08830000000,-57.15380000000
661,Jebra,9.39181000000,4.60163000000
680,Mercier,46.83070000000,-75.82290000000
699,Passes Dangereuses,50.10460000000,-71.26690000000
721,DENIS PERRON,51.26250000000,-66.93560000000
722,Bargi,22.80880000000,80.00140000000
728,Hirfanli,39.12810000000,33.70540000000
732,Iova,66.53480000000,30.89930000000
738,Harry S. Truman Dam,38.21720000000,-93.42800000000
745,Big Bend Dam,44.18420000000,-99.92870000000
751,Shulbinsk,50.31600000000,81.43560000000
758,Serpentine,-42.86560000000,146.07700000000
760,Unknown,9.15682000000,-78.78300000000
761,Ubol Ratana,16.70260000000,102.55600000000
762,Bay d'Espoir,48.08850000000,-55.91590000000
765,M'Bakaou,6.36839000000,12.92010000000
2089,Vietas,67.44710000000,18.79770000000
791,Barra Bonita,-22.68640000000,-48.26110000000
796,Marimbondo,-20.38420000000,-48.88640000000
799,Pinopolis West Dam,33.30990000000,-80.05270000000
800,Burdekin Falls,-20.68760000000,146.96100000000
807,Linganamakki,14.02330000000,74.93170000000
837,Oneida Lake,43.20350000000,-75.91960000000
838,Dadin Kowa,10.56420000000,11.50150000000
843,Ivankovo,56.79900000000,36.91880000000
847,Thac Ba,21.84520000000,104.96000000000
849,Passo Real,-28.87720000000,-53.15030000000
855,Telmen,48.83310000000,97.31730000000
869,Guntersville,34.39780000000,-86.29020000000
881,Serebrianka 1,68.58390000000,35.39320000000
885,Bloemhof,-27.73310000000,25.71550000000
900,Salto Santiago Main Dam,-25.67420000000,-52.39910000000
902,Nova Avanhandava,-21.19400000000,-50.06320000000
918,N'Zilo 1,-10.71790000000,25.67880000000
933,Gordon,-42.76830000000,146.24200000000
945,Alqueva,38.31860000000,-7.41137000000
980,Pukaki Canal Inlet Dam,-44.04940000000,170.16200000000
9900039,Cheboksary,56.33690000000,46.59870000000
9900058,Wheeler,34.67810000000,-87.08540000000
264,Merowe dam,18.91730000000,32.23590000000
444,Nakai,17.78560000000,105.17000000000
990,Karnafuli,22.78790000000,92.11240000000
1291,Bisalpur,25.89150000000,75.37140000000
703,Mangla,33.22150000000,73.57930000000
1297,Somasila,14.41630000000,79.17160000000
1078,Chashma,32.63890000000,71.41650000000
904,Sayano-Shushenskaya,52.67170000000,91.39190000000
1043,Hume,-36.21650000000,147.12100000000
1374,Gove,-13.42620000000,15.85890000000
1331,Al Massira,32.44670000000,-7.56643000000
1572,Ripogenus,46.07890000000,-69.44410000000
1235,,31.70810000000,-85.10740000000
1171,Marte R. Gomez,26.20310000000,-99.00490000000
1432,El Cuchillo,25.63230000000,-99.32530000000
1353,Venustiano Carranza,27.48350000000,-100.68300000000
1609,Stockton Dam,37.58410000000,-93.69860000000
1613,Wright Patman Dam and Lake,33.24720000000,-94.27890000000
1498,La Boquilla,27.52620000000,-105.55600000000
1592,Jackson Lake,43.90550000000,-110.67500000000
3283,Davis Bor,35.42820000000,-114.64400000000
9900083,John day lock,45.79810000000,-120.02400000000
9900084,Mcnary lock,45.97360000000,-119.03000000000
99,Porto Primavera,-21.96130000000,-52.39610000000
926,Rosana,-22.60610000000,-52.43620000000
9920055,Jirau,-9.44325000000,-64.81800000000
1566,Ayame 1,5.66688000000,-3.21403000000
1568,Norris,36.29990000000,-83.83230000000
940,Longtan,25.05800000000,106.52300000000
361,Kentucky Lake,36.54050000000,-88.01370000000
783,Almatti,16.35120000000,75.81750000000
812,Manicouagan 3,50.05010000000,-68.67350000000
551,Eufaula Lake,35.24710000000,-95.60230000000
818,Fort Randall dam,43.44470000000,-99.26630000000
678,Denison Dam,33.87730000000,-96.63760000000
9900096,unknown,45.59040000000,-75.07280000000
9900097,Beauharnois,45.17600000000,-74.33460000000
1874,Tishrin dam,36.52140000000,38.23260000000
9910015,Gabbro Control Dam,53.45220000000,-65.11310000000
211,Kenney,53.79210000000,-126.20200000000
317,Keban,38.86130000000,39.22870000000
429,Kolyma,61.73850000000,149.54800000000
621,Piedra del Aguila,-40.51610000000,-70.35060000000
739,Irikla,51.75580000000,58.92810000000
795,Suorvadammen,67.66320000000,17.59010000000
1414,Manicouagan 2,49.50900000000,-68.40450000000
884,Hoa Binh,21.05000000000,104.72700000000
901,Nagarjuna Sagar,16.45900000000,79.17630000000
937,Exploits,48.74740000000,-56.85690000000
948,Hart Jaune,51.85090000000,-67.66720000000
1132,Sardar Sarovar,21.93360000000,74.06850000000
1149,Flaming Gorge,41.11790000000,-109.55200000000
1221,Dongjiang,25.67190000000,113.37500000000
1162,Xiaowan dam,24.74080000000,100.01100000000
1275,Lac Ste. Anne Principal,50.15770000000,-67.90710000000
1378,Dniestr,48.57330000000,26.92460000000
1439,Foz do Areia,-26.06280000000,-51.55890000000
1492,Revelstoke,51.38210000000,-118.43000000000
1495,Bhakra Dam,31.43860000000,76.45900000000
1515,Narayanapura,16.18840000000,76.12180000000
1525,Pedra do Cavalo,-12.45880000000,-39.06750000000
1540,Kadana,23.30140000000,73.89840000000
9900048,Uglich,57.35020000000,38.06370000000
212,Jebel Aulia,14.22070000000,32.22780000000
9920006,Porto Colombia,-20.12890000000,-48.38350000000
768,Watts Bar,35.82080000000,-84.63150000000
190,Kettle Rapids Main Dam,56.39850000000,-95.06980000000
9920008,Kelsey,55.45660000000,-96.77240000000
9920011,Rogun,38.84380000000,70.13560000000
1883,Tianshengqiao 1,24.76840000000,104.95900000000
1807,Nurek,38.32450000000,69.35950000000
19980,Dongfeng,26.80310000000,106.11200000000
5176,Xianghongdian,31.53680000000,116.06200000000
5086,Pankou dam,32.12330000000,110.13400000000
8783,Jiangya,29.55100000000,110.64900000000
10886,Wujiangdu,27.19340000000,106.46900000000
22632,Hepu,21.83360000000,109.55300000000
3132,Cirata,-6.74584000000,107.29800000000
3110,Kotopanjang,0.29687500000,100.75700000000
8315,Longjiang dam,24.32250000000,98.11460000000
3689,Mani,13.65040000000,75.07460000000
1299,Dokan,36.11600000000,44.94060000000
25344,Inguri,42.78270000000,42.04450000000
16839,Hasan Ugurlu,40.90110000000,36.63090000000
49110,Topcam,37.70910000000,28.01760000000
816,Seitakorva,66.63600000000,27.57840000000
876,Mwadinguisha,-10.88430000000,27.06860000000
38997,Quedas do Ruacana,-17.27240000000,14.58680000000
6579,Quiminha,-8.89502000000,13.59810000000
446,Cabonga,47.31830000000,-76.56880000000
21567,Unknown,48.40130000000,-75.56500000000
48879,Twin Buttes,31.36740000000,-100.54900000000
18218,Brantley,32.57640000000,-104.38300000000
22171,Alamo dam,34.27120000000,-113.56600000000
17446,New Melones,37.99040000000,-120.53100000000
42847,Arrojado Lisboa,-5.34939000000,-38.98880000000
3614,Laguna del Maule,-36.05380000000,-70.50220000000
1648,Baise,24.02300000000,106.37300000000
984,Porttipahta,68.11840000000,26.52840000000
4166,Ban Ve,19.44200000000,104.59300000000
9920014,Dahua,23.88470000000,107.74600000000
4826,Shizitan,30.00430000000,107.39400000000
3845,Baozhusi,32.66200000000,105.46000000000
3870,Shengzhong,31.51770000000,105.63100000000
4087,Ankang,32.50470000000,108.66900000000
3723,Meishan,31.55910000000,115.78900000000
8807,Bailianhe,30.64100000000,115.55800000000
2875,Hualiangting,30.48890000000,116.16000000000
2019,Xuyahu,33.03960000000,114.23800000000
3874,Nanwan,32.06580000000,113.94500000000
3610,Yahekou,33.35150000000,112.55100000000
12944,Guxian,34.18110000000,111.23800000000
5324,Geheyan,30.43710000000,110.90300000000
7469,Fengtan,28.74510000000,110.10100000000
3460,Zhanghe,31.01780000000,112.04000000000
4314,Fengshuba,24.45350000000,115.38200000000
4601,Baipenzhu,23.10450000000,115.12300000000
4638,Nanshui,24.75660000000,113.16900000000
7033,Tuyen quang,22.50420000000,105.32500000000
5657,Gaozhou,22.14950000000,111.00900000000
1608,Songtao,19.32050000000,109.63400000000
2503,Daguanba,18.81670000000,109.07400000000
7527,Chengbihe,23.98610000000,106.64400000000
2288,Wanan,26.14950000000,114.90500000000
7207,Hongshan,42.65440000000,119.75400000000
3406,Panjiakou,40.43670000000,118.32900000000
2281,Yuqiao,40.03570000000,117.58100000000
2766,Guanting,40.38550000000,115.77500000000
5672,Wangkuai,38.73840000000,114.46000000000
7234,Xidayang,38.75450000000,114.76100000000
4847,Gangnan,38.33620000000,113.93800000000
5214,Huangbizhuang,38.27090000000,114.25100000000
8766,Yuecheng,36.29670000000,114.15600000000
4667,Luhun,34.15660000000,112.13200000000
2105,Jatiluhur,-6.53767000000,107.37900000000
4044,Yali,14.27990000000,107.84000000000
2331,Nong Han Lake,17.18970000000,104.18600000000
4375,Bang Lang,6.10821000000,101.29300000000
3257,Pedu,6.24298000000,100.80800000000
6234,Jinghong,22.27100000000,100.65200000000
6396,Huanglongtan,32.33420000000,110.38300000000
2460,Yantan,24.10060000000,107.42900000000
2344,Sanmenxia,34.62650000000,110.67900000000
2262,Unknown,22.64000000000,109.08300000000
3678,Dong nai 3,11.81880000000,107.92200000000
5217,Hunanzhen,28.60360000000,118.92100000000
2113,Chencun,30.37250000000,118.04600000000
2801,Imnam dam,38.48000000000,127.80300000000
2820,Chungju,36.97710000000,128.13100000000
4391,Changjin,40.50630000000,127.20100000000
2252,Yunfeng,41.45360000000,126.52800000000
6780,Songwon,40.41660000000,125.84800000000
4238,Mapyong,40.00380000000,125.48100000000
3388,Shitoukoumen,43.85870000000,125.80200000000
2925,Dahuofang,41.91010000000,124.23800000000
2228,Huanren,41.25390000000,125.54400000000
3847,Guanyinge,41.36600000000,124.26000000000
4964,Baishi,41.77390000000,120.91400000000
4125,Soyanggang,37.95180000000,127.90100000000
10176,Pine Flat Dam,36.87240000000,-119.27400000000
10213,Camlidere,40.40510000000,32.36650000000
10468,Elk city lake,37.25010000000,-95.79910000000
10548,Laxiwa,36.08050000000,101.08500000000
10565,Jacarei,-22.97850000000,-46.37960000000
10633,Manuel Moreno Torres,16.90790000000,-93.10100000000
11278,Abiquiu Dam,36.27640000000,-106.46300000000
11608,Maroon,30.74890000000,50.41880000000
11615,Curema,-7.09051000000,-37.89760000000
11734,Billings,-23.79300000000,-46.61640000000
12198,Center Hill Dam,36.04350000000,-85.81090000000
12619,Vatnedalen Hoveddam,59.47270000000,7.21919000000
12723,Acaray Iguazu,-25.41870000000,-54.69900000000
13164,New Bullards Bar,39.43800000000,-121.12200000000
1616,Torron,63.92680000000,12.92880000000
1627,Fairbairn,-23.69350000000,147.98300000000
1639,Mettur,11.90470000000,77.78520000000
1659,Quabbin Winsor Dam,42.41190000000,-72.29380000000
1661,Pavlovskaya,55.62280000000,56.74950000000
1667,Guarico,9.05532000000,-67.37490000000
1668,Ross Barnett Reservoir,32.43340000000,-90.03770000000
1674,Upper Kolab,18.64580000000,82.80090000000
1696,Richard B.Russell dam,34.13880000000,-82.70570000000
1697,Kompienga,11.16110000000,0.62645700000
1711,Carlyle lake dam,38.70070000000,-89.26640000000
1718,Miguel Hidalgo,26.55440000000,-108.58300000000
1733,Nangbeto,7.52980000000,1.37897000000
1757,Ray Roberts Dam,33.43140000000,-97.01000000000
1761,Koyna,17.61580000000,73.73840000000
1782,Wivenhoe,-27.30990000000,152.55000000000
1785,Lake Fork Dam,32.85780000000,-95.61480000000
1832,Bango,22.65060000000,82.62440000000
1849,Rincon de Baygorria,-32.83490000000,-56.76090000000
1854,Al Wahda,34.53650000000,-5.05428000000
1860,Arenal,10.52810000000,-84.92110000000
1863,Millwood Dam,33.75300000000,-93.98140000000
1875,Hungry Horse,48.12670000000,-113.78600000000
1882,Douglas,35.99350000000,-83.36870000000
1886,Tawa,22.49200000000,77.95710000000
1890,Buchanan Dam,30.83690000000,-98.42360000000
1906,Norfork,36.38240000000,-92.24320000000
1914,Blackburn Crossing Dam,32.19830000000,-95.48200000000
1929,Aras,39.19700000000,45.26610000000
2017,Supa,15.25370000000,74.46070000000
2034,Oros,-6.25579000000,-39.06810000000
2037,Daule Peripa,-0.87386800000,-79.78170000000
2038,El Pescadero,14.87200000000,-87.99310000000
2060,Masinga,-0.91423300000,37.51970000000
2065,Cabra Corral,-25.26490000000,-65.36310000000
2069,Krisharaja Sagar,12.45590000000,76.48840000000
2086,American Falls,42.92340000000,-112.74100000000
2112,Altevatn,68.53280000000,19.50840000000
2120,Cerron Grande,14.00750000000,-89.02740000000
2150,Almendra,41.20830000000,-6.17863000000
2174,Fort Gibson Lake,35.96970000000,-95.28200000000
2183,Sriram Sagar,18.96680000000,78.26440000000
2192,Uruguay,-25.88360000000,-54.45160000000
2196,Arkabutla Dam,34.75950000000,-90.06790000000
2205,Lewisville Dam,33.13540000000,-96.93450000000
2206,Lewis Smith,34.05940000000,-87.01960000000
2226,Red Rock Dam,41.38900000000,-93.10130000000
2235,Greers Ferry,35.52050000000,-92.09280000000
2247,Benmore,-44.45790000000,170.21000000000
2267,Hugo Lake,34.08020000000,-95.42970000000
2286,Lazaro Cardenas,25.52580000000,-105.06300000000
2289,Smith Mountain,37.06220000000,-79.59460000000
2304,Catalan,37.25130000000,35.35740000000
2323,Hedi,21.82010000000,110.31800000000
2325,Seitevare,67.06180000000,18.47080000000
2326,Duncan,50.32770000000,-116.94500000000
2327,Erlongshan,43.18540000000,124.81200000000
2332,Pedra,-13.87730000000,-40.57100000000
2333,Keystone Lake,36.14060000000,-96.33980000000
2349,Sariyar,40.02830000000,31.60810000000
2375,Matatila,25.05220000000,78.32650000000
2390,,25.16880000000,-107.41100000000
2401,Warragamba,-33.99620000000,150.40700000000
2407,Lake Rudnyy,52.81700000000,62.88840000000
2409,Agua Milpa,21.72710000000,-104.65700000000
2414,Mosvatn,59.86560000000,8.10244000000
2436,El Cajon,15.01810000000,-87.63940000000
2445,Seminoe,42.02730000000,-106.84400000000
2476,Ramganga,29.57290000000,78.77660000000
2490,Cherokee Saddle Dam 1,36.28340000000,-83.32040000000
2495,Khashm el Gibra,14.73700000000,35.90370000000
2505,Clarence Cannon Dam,39.50750000000,-91.79270000000
2507,Lago laja,-37.32940000000,-71.29750000000
2514,Tiber Dike,48.35660000000,-111.33100000000
2516,Keowee,34.82480000000,-82.92070000000
2517,Chandil,23.03490000000,86.00550000000
2559,Kremasta,38.90890000000,21.51640000000
2598,Mequinenza,41.36320000000,0.12105700000
2600,Enid Dam,34.15280000000,-89.79070000000
2626,Whitney Lake,31.89930000000,-97.37180000000
2635,Ferrells Bridge Dam,32.77360000000,-94.60450000000
2678,Milford Dam,39.13610000000,-96.92590000000
2692,Lavon Dam,33.10430000000,-96.47580000000
2693,Garafiri,10.56670000000,-12.49880000000
2698,Hongmen,27.41830000000,116.81100000000
2701,Machadinho,-27.49030000000,-51.68270000000
2718,Kangsabati Kumari,22.95660000000,86.70700000000
2730,Dartmouth,-36.61640000000,147.61000000000
2745,Al Adhaim,34.62300000000,44.49940000000
2749,Corumana,-25.16490000000,32.10450000000
2750,Batang Ai,1.16779000000,111.86500000000
2756,Xingo,-9.51876000000,-37.98760000000
2777,Zaza,21.85940000000,-79.40700000000
2787,Thein Dam,32.47390000000,75.77180000000
2800,Soldier Creek,40.14560000000,-111.10700000000
2819,Polyphyto,40.21260000000,21.95740000000
2862,Kaw Lake,36.78530000000,-96.86980000000
2892,Isapur,19.78530000000,77.37370000000
2894,Bocono-Tucupido,8.99061000000,-70.00810000000
2952,Santa Rita Dike I,6.25775000000,-75.19310000000
2969,Dez,32.66760000000,48.45260000000
3028,Shamkir,40.98540000000,45.99670000000
3033,Altinkaya,41.31730000000,35.55810000000
3036,Storvatn,59.37010000000,6.91207000000
3037,Broken Bow Lake,34.22390000000,-94.68580000000
3048,Cijara,39.33170000000,-4.88339000000
3052,Tenkiller Lake,35.70500000000,-94.96510000000
3059,Big Horn,52.19200000000,-116.44200000000
3063,Chicamba Real,-19.14690000000,33.01320000000
3069,Choke Canyon,28.50060000000,-98.35240000000
3078,Kyle,-20.21200000000,30.94700000000
3079,B. Everett Jordan Dam,35.74770000000,-79.02170000000
3116,Solis,20.06870000000,-100.57200000000
3117,Hemavathy,12.80780000000,75.94020000000
3118,Al Fayyum,29.24400000000,30.47750000000
3125,Itapebi,-15.96950000000,-39.77810000000
3127,Riam Kanan,-3.52782000000,115.08200000000
3149,Vilejskoye,54.47500000000,27.14010000000
3183,Alarcon,39.68340000000,-2.25849000000
3233,Theodore Roosevelt,33.68570000000,-111.10900000000
3235,Idriss 1,34.13160000000,-4.70137000000
3239,Derbendikhan,35.13730000000,45.77030000000
3245,Salto Osorio,-25.59320000000,-52.86930000000
3261,Degray Dam,34.25710000000,-93.21740000000
3280,Presidente Jose L. Portillo,24.62500000000,-106.73600000000
3332,Malaprabha,15.76730000000,74.92040000000
3341,Karkheh,32.50340000000,48.01100000000
3347,Aslantas,37.34860000000,36.29780000000
3348,Corumba,-17.81700000000,-48.56280000000
3539,Seyhan,37.08240000000,35.27890000000
3546,Ross,48.73850000000,-121.05300000000
3551,Idukki,9.79645000000,76.93180000000
3552,Daechong,36.40630000000,127.55000000000
3567,Mossyrock,46.47570000000,-122.28100000000
3613,Harlan County Dam,40.06210000000,-99.29610000000
3631,Valdecanas,39.80940000000,-5.40420000000
3640,Somerville Dam,30.30960000000,-96.59890000000
3651,Andizhan,40.76450000000,73.10000000000
3696,Estreito,-20.25660000000,-47.21110000000
3700,Belton Dam,31.17970000000,-97.50530000000
3725,Crotty,-42.12750000000,145.66000000000
3744,Colbun,-35.68290000000,-71.25350000000
3747,Kinzua Dam,41.84920000000,-78.97490000000
3772,Maithon,23.84090000000,86.81740000000
3824,Camatagua,9.82663000000,-66.99620000000
3848,Palisades,43.23630000000,-111.11100000000
3938,Lake Shelbyville Dam,39.51470000000,-88.68940000000
3953,Totladoh,21.71820000000,79.22610000000
3954,Unknown,5.01170000000,17.93890000000
3959,Bersimis 2,49.28490000000,-69.35360000000
3963,Demirkopru,38.68420000000,28.39200000000
4020,Akersvatn,66.16280000000,14.39530000000
4031,Hidkal,16.11860000000,74.57530000000
4076,Terzaghi,50.85250000000,-122.53300000000
4086,Turkwel,1.83279000000,35.26800000000
4110,Panchet Hill,23.66930000000,86.61010000000
4142,,25.88170000000,-107.90000000000
4206,Trinity,40.83570000000,-122.80900000000
4215,Barren River Lake Dam,36.85520000000,-86.01790000000
4306,Falls Lake Dam,36.02260000000,-78.69600000000
4310,Miyun,40.49890000000,116.94900000000
4316,Chute des Georges,48.78680000000,-71.14750000000
4332,Burrinjuck,-34.93790000000,148.78200000000
4342,Gomal zam,32.06220000000,69.83230000000
4478,Jaguari,-23.20060000000,-46.10240000000
4485,Unknown,-5.15427000000,-44.68560000000
4486,Pantabangan,15.85590000000,121.12600000000
4540,Talimarjan,38.37130000000,65.56960000000
4542,An Dong,36.59670000000,128.87400000000
4577,Karacaoren 1,37.40670000000,30.84930000000
4597,Bin el Ouidane,32.10120000000,-6.39472000000
4605,Great Salt Plains Lake,36.74220000000,-98.22730000000
4615,Blowering,-35.48090000000,148.26000000000
4662,Dubossary,47.30160000000,29.09930000000
4689,Elephant Butte Dike,33.26420000000,-107.17800000000
4724,Prado,3.79353000000,-74.84560000000
4747,Strathcona,49.77500000000,-125.60200000000
4776,Pathfinder Dike,42.42380000000,-106.92800000000
4875,Shasta,40.75680000000,-122.24300000000
4904,Fontana,35.44380000000,-83.72350000000
4932,Wyangala,-33.89280000000,149.10700000000
5009,Mansfield Dam,30.37910000000,-98.02100000000
5062,Raystown Dam,40.38390000000,-78.05870000000
5079,Stinca Costesti,47.87760000000,27.19350000000
5093,Main Dam,34.98370000000,-82.94080000000
5107,B.F. Sisk,37.05190000000,-121.12500000000
5125,Bridgeport Dam,33.22390000000,-97.86250000000
5165,Oroville,39.55090000000,-121.42700000000
5297,New waddell,33.90350000000,-112.27100000000
5301,Kralkizi,38.35200000000,39.89510000000
5380,Castelo do Bode,39.60090000000,-8.24449000000
5432,Lijiaxia,36.16020000000,101.75800000000
5476,Mita Hills,-14.12730000000,29.09790000000
5480,Idamalayar,10.24620000000,76.75250000000
5488,Kilickaya,40.15160000000,38.24140000000
5536,Canyon Lake,29.88650000000,-98.23380000000
5581,Copeton,-29.91980000000,150.97700000000
5638,Wappapello Dam,36.94940000000,-90.31510000000
5730,Wadi Al Rayan,29.15050000000,30.40340000000
5770,Hallby,63.89550000000,17.23730000000
5775,Dworshak Dam,46.65170000000,-116.01800000000
5846,Serre Poncon,44.46560000000,6.32351000000
5985,Waco Lake,31.56770000000,-97.21730000000
6004,Saryyazin Skoye,36.33830000000,62.64380000000
6016,Folsom,38.73200000000,-121.13600000000
6029,Chirkey,42.94200000000,46.93390000000
6090,Kinda,21.08670000000,96.32350000000
6144,Almus,40.35590000000,36.99590000000
6184,Izvorul Muntelui,47.04010000000,26.02780000000
6298,Batman,38.24070000000,41.09010000000
6367,Grancarevo,42.81910000000,18.44540000000
6387,Nizam Sagar,18.13810000000,77.95660000000
6408,Don Pedro,37.72130000000,-120.39200000000
6563,Jalleru,17.32610000000,82.06240000000
6618,Svartevatn Dam,59.18780000000,6.93168000000
6735,Adolfo Ruiz Cortines,27.25920000000,-109.10500000000
6767,Ribeirao da Prata,-22.76520000000,-43.94870000000
7020,Waurika Lake,34.28500000000,-98.08900000000
7487,Penitas,17.35950000000,-93.48390000000
7602,Sir,37.58670000000,36.73340000000
7745,Stillhouse-Hollow Dam,31.02140000000,-97.56700000000
7797,Glendo dike no3,42.48070000000,-104.97800000000
7920,Burrendong Dam,-32.65960000000,149.14100000000
8075,Adiguzel,38.21190000000,29.21820000000
8219,Lake Kemp Dam,33.77410000000,-99.18780000000
8292,Dousti,35.76240000000,61.24760000000
8299,Coolidge,33.19450000000,-110.46200000000
8753,Khoda afarin dam,39.14980000000,46.87010000000
8848,Thomson,-37.77290000000,146.36000000000
8870,Salmane Farsi,28.56030000000,53.14130000000
9101,Zayandeh Rood,32.72150000000,50.61260000000
9592,Sefidrood,36.72640000000,49.36860000000
9718,Pine Creek Lake,34.15520000000,-95.10600000000
9799,Hub,25.32070000000,67.14310000000
9925,Angat,14.91960000000,121.17700000000
10049,La yesca dam,21.16060000000,-104.05400000000
1752,Plutarco Elias Calles,29.13580000000,-109.65200000000
1777,Shuikou,26.39660000000,118.44600000000
1787,Futaleufu,-43.02220000000,-71.86560000000
1940,Baishan,42.63830000000,127.17100000000
3004,Fushui,29.68400000000,114.80000000000
3093,Fierza,42.20430000000,20.18300000000
3326,Birecik,37.40170000000,37.94250000000
3431,Twin Falls,48.76320000000,-80.41540000000
3455,Miranda,-19.02920000000,-47.97130000000
3809,Karoon,32.17760000000,49.66420000000
3853,Navajo,36.83210000000,-107.47200000000
4223,Charvak,41.62030000000,70.06320000000
4465,Ricobayo,41.62470000000,-5.91913000000
4680,Florentino Ameghino,-43.88050000000,-66.75860000000
4739,Katse,-29.23800000000,28.47450000000
4741,Karoon 3,31.59900000000,50.27240000000
5211,Buendia,40.38440000000,-2.72188000000
5379,Menzelet,37.70840000000,36.86830000000
5545,Jinshuitan,28.13000000000,119.35200000000
6617,Karun-4 dam,31.63800000000,50.48570000000
6934,Ozluce,39.19600000000,40.23230000000
9920015,Peace,38.25170000000,127.80100000000
7954,Hwachon,38.11150000000,127.81700000000
7977,Zimapan,20.65780000000,-99.51020000000
9920016,Mianhuatan,24.78100000000,116.51400000000
9920017,Gezhouba,30.84180000000,111.07300000000
711,Nuozhadu dam,22.67360000000,100.35700000000
9920018,Urra 1,7.94177000000,-76.21790000000
2975,MITCHINAMECUS,47.30910000000,-75.15170000000
1460,Tekeze,13.20720000000,38.71660000000
3792,Sidi Mohamed Ben Abdellah,33.85660000000,-6.67070000000
9043,Jekara,12.12110000000,8.66402000000
16689,Gatun,9.07721000000,-79.97710000000
1129,Hamrin,34.21030000000,45.02020000000
4487,Lazaro Cardenas,30.53520000000,-109.36700000000
12287,Plutarco Elias Calles,22.15050000000,-102.44400000000
4328,Carlos Ramirez Ulloa,18.01270000000,-99.76980000000
9920020,Leonardo Rodriguez Alcaine,21.25480000000,-104.29300000000
3463,Shuibuya,30.36880000000,109.99600000000
6757,Magat Dam,16.82030000000,121.41600000000
9920021,Yenice,40.03750000000,30.92290000000
36782,Lake McClure,37.60430000000,-120.26300000000
574,Kootenay,49.59350000000,-116.85600000000
537,Pend Oreille Lake,48.14340000000,-116.41600000000
9920022,Bighorn Lake,45.27160000000,-107.99500000000
9920023,Brownlee,44.53140000000,-117.16000000000
9920024,Huites,26.89100000000,-108.27400000000
9910008,Lake Winnipeg,54.26770000000,-97.95160000000
19234,Sanford Dam,35.66100000000,-101.63800000000
9920025,Des Joachims Main Dam,46.19300000000,-77.79190000000
9920026,Mactaquac,45.92280000000,-67.05870000000
500,Samuel,-8.92919000000,-63.32950000000
2541,Alicura,-40.59500000000,-70.84510000000
364,Grand Lake,48.97650000000,-57.37450000000
630,Jupia,-20.66220000000,-51.49790000000
2257,Segredo,-25.94030000000,-52.06500000000
1830,Moxoto,-9.29638000000,-38.25270000000
3958,Storglomvatn,66.72390000000,14.22160000000
9920027,Iron Gate 1,44.47280000000,22.13580000000
970,Rana Pratap,24.78890000000,75.52880000000
1319,Xiaolangdi,35.06320000000,111.98600000000
9920056,Wuqiangxi,28.35100000000,110.30800000000
9920057,Feilaixia,23.92220000000,113.30000000000
9900024,La Vueltosa,7.79193000000,-71.43310000000
3291,RAPIDE-DES-CEDRES,49.06650000000,-76.89430000000
21815,PLANICIE BANDERITA,-38.57700000000,-68.41360000000
15203,POTRERILLOS,-32.96840000000,-69.17090000000
2143,BARRA GRANDE,-27.86900000000,-51.07370000000
4793,CAMPOS NOVOS,-27.61800000000,-51.18460000000
1898,CASTANHAO,-5.62013000000,-38.59160000000
1044,CORUMBA IV,-16.30660000000,-48.38450000000
6265,ELDORADO,-23.73080000000,-46.73250000000
9920028,ESTREITO,-7.28099000000,-47.60590000000
1986,IRAPE,-16.81790000000,-42.68270000000
1488,ITA,-27.30480000000,-52.13260000000
9920029,LAJEADO,-10.29410000000,-48.40920000000
18967,MARIMBONDO,-22.72420000000,-47.24240000000
2079,MAUA,-24.14730000000,-50.72710000000
1120,SERRA DO FACAO,-17.81370000000,-47.65130000000
341,EASTMAIN-1,52.08820000000,-75.85410000000
3594,MANOUANE,47.57240000000,-74.10660000000
9920030,BAIHE,40.64330000000,116.16000000000
3829,CHAERSEN,46.35510000000,121.92300000000
9920031,JUNMIN,29.59870000000,116.91900000000
9920032,LISHIMEN,29.05990000000,120.73300000000
8210,SHANXI,27.61850000000,119.91800000000
9920033,WANYAO,28.62290000000,118.66400000000
4057,XIAOJIANG,22.05040000000,109.57500000000
298,INDIRA SAGAR (NHPC),22.14560000000,76.66960000000
2317,,14.33580000000,79.56520000000
1792,MAHI BAJAJ SAGAR,23.56390000000,74.56780000000
5185,TENUGHAT,23.73860000000,85.78810000000
295,BAKUN DAM,2.27171000000,113.85500000000
6245,ALVARO OBREGON,20.88860000000,-100.80800000000
2217,SOLBERGFOSS,59.79320000000,11.20800000000
7308,IZNAJAR,37.24440000000,-4.29109000000
1923,ALPASLAN I,39.05060000000,41.94900000000
3182,BOYABAT,41.14900000000,34.78240000000
9107,DERINER,41.10310000000,41.83070000000
3007,ERMENEK,36.55800000000,32.91360000000
1484,COWANS FORD,35.55480000000,-80.93940000000
1531,DRY FALLS DAM & POWERPLANT,47.84660000000,-119.17200000000
5540,SOUTH HOLSTON,36.56200000000,-82.02840000000
2571,BOYSEN,43.30750000000,-108.18500000000
1945,GAVINS POINT DAM,42.85000000000,-97.75820000000
8622,FOSS RESERVOIR,35.55920000000,-99.19710000000
4989,BLUE MESA,38.47340000000,-107.21300000000
4127,GLEN ELDER,39.48140000000,-98.41600000000
4498,SKIATOOK LAKE,36.39580000000,-96.19960000000
10566,SIMON FREESE DAM,31.56860000000,-99.71770000000
629,UPPER KLAMATH LAKE,42.41850000000,-121.93000000000
5285,OWYHEE,43.46680000000,-117.34300000000
9166,LAKE BROWNWOOD DAM,31.82760000000,-99.06240000000
9910200,CHICKAMAUGA,35.36300000000,-84.91780000000
5134,Ban Chat,21.98030000000,103.77000000000
516,Bui,8.39097000000,-2.32591000000
501,Bureyskaya,50.28860000000,130.64400000000
1271,Fengman,43.22280000000,126.97600000000
9788,Guangzhao,26.02830000000,105.19500000000
18104,Guanyinyan,26.36090000000,101.25900000000
882,Murum,2.62329000000,114.42500000000
742,Peixe Angical,-12.42850000000,-48.24230000000
9920035,Pengshui,29.13930000000,108.27600000000
4161,Pleikrong,14.49990000000,107.87100000000
11320,Ralco,-38.13530000000,-71.43030000000
959,Saluda dam remediation,34.08190000000,-81.41120000000
7964,Silin,27.73250000000,108.06100000000
1727,Son La,21.85270000000,103.55500000000
2061,Tingzikou,31.90930000000,105.64300000000
9920036,Upper Paung Laung,20.02190000000,96.56640000000
3699,Yeywa,21.87310000000,96.65120000000
9920037,ahai dam,27.41620000000,100.47900000000
14366,alberto lleras dam,4.69761000000,-73.51240000000
9920038,boguchany dam,58.66440000000,100.64900000000
2874,Goupitan dam,27.28530000000,107.35700000000
4514,hongjiadu dam,26.92710000000,105.78700000000
15975,hongshi dam,42.89260000000,127.24000000000
6197,houay ho,15.03690000000,106.78900000000
4748,jiemian dam,25.83040000000,117.99900000000
4220,jilintai dam,43.80660000000,82.98300000000
3427,jinping-i dam,27.89620000000,101.50100000000
9920039,lam phra phloeng dam,14.54780000000,101.79900000000
9920040,ludila dam,26.21770000000,100.49100000000
418,nierji dam,48.66590000000,124.60500000000
2808,pubugou dam,29.33600000000,102.62400000000
5071,saguling dam,-6.92444000000,107.43400000000
2762,sanbanxi dam,26.62690000000,108.78000000000
8742,seimare dam,33.34170000000,47.11990000000
1963,shwegyin dam,18.08650000000,96.95250000000
3174,sogamoso dam,7.06226000000,-73.34870000000
4475,tankeng dam,28.03280000000,119.83200000000
2383,tendaho irrigation dam,11.53480000000,40.94460000000
2703,upper gotvand dam,32.24870000000,49.10970000000
1843,usoi dam,38.18730000000,72.72000000000
5445,Xiangjiaba dam,28.61550000000,104.08000000000
2013,xiluodu dam,27.79510000000,103.48000000000
9920053,yangqu dam,35.76740000000,100.30900000000
9920042,Gilgel Gibel III,6.87197000000,37.34450000000
9920043,Xe Kman I,15.02460000000,107.21500000000
9920044,Rumela,14.03440000000,36.00770000000
1364,Rupert,51.61920000000,-75.16180000000
2828,Foz do Chapeco,-27.19810000000,-52.90580000000
9920045,Samendeni,11.40450000000,-4.61482000000
9920054,Toulnustouc,50.03480000000,-67.97420000000
9920046,El Quimbo,2.34257000000,-75.61260000000
9920047,Karahnjukar,64.83980000000,-15.86790000000
2173,Nam Ngum,18.91840000000,102.70100000000
9920048,Baixo Sabor,41.23900000000,-6.94703000000
9920049,Ust-Srerdnekanskaya,62.39390000000,152.07500000000
5350,Sureyyabey,39.99120000000,35.53870000000
8236,Cua Dat,19.90880000000,105.24900000000
9920050,Kalashuke,47.08980000000,88.98430000000
9920051,Zipingpu,31.02670000000,103.54600000000
4532,Zaoshi,29.69770000000,111.19700000000
9920052,Lower Sesan II,13.44130000000,106.41600000000
2867,Qiapuqihai,43.25500000000,82.42700000000
806,Saksak,38.49630000000,38.44210000000
555,Mead,36.16910000000,-114.40700000000
67,Guri reservoir,7.45321000000,-62.67500000000
78,Zeyskoye reservoir,54.45420000000,128.03100000000
9920041,tokwe mukorsi dam,-20.70250000000,30.83470000000
3831,Tuttle Creek Dam,39.31750000000,-96.63520000000
438,Valencia,10.17110000000,-67.80920000000
9920058,GERD,11.21390000000,35.09310000000
9920059,Lauca,-9.74307000000,15.12630000000
9920060,Batalha,-17.34590000000,-47.48950000000
9920061,Notigi,16.77010000000,80.05650000000
64,,40.99880000000,66.39030000000
58,Small Aral Sea,46.47270000000,60.67760000000
